[
  {
    "id": "ocm_459908",
    "name": "Auto Posto São Joao - Ipirá",
    "latitude": -12.162745409332942,
    "longitude": -39.744123253114935,
    "address": "BA-052, S/N - Km 85 - Centro, Ipirá - BA, 44600-000, Ipirá, bahia",
    "source": "OpenChargeMap"
  },
  {
    "id": "ocm_460141",
    "name": "Volvo Posto Santa Helea",
    "latitude": -12.51767816012773,
    "longitude": -40.285841061034034,
    "address": "Rodovia BR 242, Km 88, s/n Sede, Itaberaba - BA, 46880-000, Itaberaba, Bahia",
    "source": "OpenChargeMap"
  },
  {
    "id": "ocm_302214",
    "name": "Planeta Charger - LC Palace Hotel",
    "latitude": -11.38141875016818,
    "longitude": -40.00752375615835,
    "address": "Avenida Luis Eduardo Magalhães, Capim Grosso, Bahia",
    "source": "OpenChargeMap"
  },
  {
    "id": "ocm_267144",
    "name": "BR Super Carga - Pousada e Restaurante Moderno - 60kW - Milagres/BA",
    "latitude": -12.873784406117991,
    "longitude": -39.856543582119286,
    "address": "Av. Lomanto Júnior, 633, Milagres, Bahia",
    "source": "OpenChargeMap"
  },
  {
    "id": "ocm_460044",
    "name": "Posto Gasauto Noide",
    "latitude": -12.256895582042517,
    "longitude": -38.92886473943736,
    "address": "Av. Noide Ferreira De Cerqueira, 4301 - Lagoa Salgada, Feira de Santana - BA, 44082-225, Feira De Santana, bahia",
    "source": "OpenChargeMap"
  },
  {
    "id": "ocm_238156",
    "name": "Pena Branca Hotel e Eventos",
    "latitude": -12.975356,
    "longitude": -39.276573,
    "address": "BR101, KM262, Rua do Amparo, Santo Antonio de Jesus, Bahia",
    "source": "OpenChargeMap"
  },
  {
    "id": "ocm_460171",
    "name": "Posto Vale Ouro Morro Do Chapeu",
    "latitude": -11.55759971096822,
    "longitude": -41.157542493639085,
    "address": "Rodovia BA 052, Tv. Valê Ouro, KM 269, Morro do Chapéu - BA, 44850-000, Morro Do Chapeú, bahia",
    "source": "OpenChargeMap"
  }
]