[
  {
    "id": "ocm_266711",
    "name": "SAU 4 - Eco050 - Servico Apoio Usuario",
    "latitude": -18.084394780603844,
    "longitude": -47.86994604066615,
    "address": "BR-050, Goiás",
    "source": "OpenChargeMap"
  },
  {
    "id": "ocm_461936",
    "name": "Catalão Shopping",
    "latitude": -18.172543,
    "longitude": -47.927671,
    "address": "R. Jocelim, R. Juscelino Gomes Píres, Nossa Senhora de Fátima, Catalão, Goiás",
    "source": "OpenChargeMap"
  },
  {
    "id": "ocm_461256",
    "name": "Hotel GO Inn",
    "latitude": -18.186874334262043,
    "longitude": -47.94602315861687,
    "address": "Rua Geraldo Luís, 42, Catalão , Goiás ",
    "source": "OpenChargeMap"
  },
  {
    "id": "ocm_266710",
    "name": "SAU 5 - Eco050 - Servico Atendimento Usuario",
    "latitude": -18.41615946160681,
    "longitude": -48.07907719849101,
    "address": "BR-050, Goiás",
    "source": "OpenChargeMap"
  },
  {
    "id": "ocm_266712",
    "name": "SAU 3 - Eco050 - Servico Atendimento Usuario",
    "latitude": -17.608798041593403,
    "longitude": -47.78845805509252,
    "address": "BR-050, Goiás",
    "source": "OpenChargeMap"
  },
  {
    "id": "ocm_461934",
    "name": "Lagoa Eco Towers",
    "latitude": -17.694226,
    "longitude": -48.587424,
    "address": "Avenida Princesa Isabel, Setor Lagoa Quente, Caldas Novas, Goiás",
    "source": "OpenChargeMap"
  },
  {
    "id": "ocm_272660",
    "name": "Lagoa Eco Towers Resort",
    "latitude": -17.694871297406465,
    "longitude": -48.588163801572705,
    "address": "Avenida Princesa Isabel, Quadra A5, Lote 03A, Caldas Novas,  GO",
    "source": "OpenChargeMap"
  },
  {
    "id": "ocm_460058",
    "name": "GDC Mobi",
    "latitude": -17.73504021923816,
    "longitude": -48.623825486304305,
    "address": "Av Sebastião Dayrell De Lima, 267 Brasileia, Betkm",
    "source": "OpenChargeMap"
  },
  {
    "id": "ocm_462295",
    "name": "Estacionamento Caldas Novas ",
    "latitude": -17.744608177194195,
    "longitude": -48.63081480014415,
    "address": "R. Machado de Assis, 410 - Termal, Caldas Novas - GO, 75680-074, Brasil, Caldas Novas , Goiás ",
    "source": "OpenChargeMap"
  },
  {
    "id": "ocm_461935",
    "name": "Maria Fumaça",
    "latitude": -17.726769,
    "longitude": -48.62768,
    "address": "R. São Genaro, 1000, Solar de Caldas, Caldas Novas, Goiás",
    "source": "OpenChargeMap"
  },
  {
    "id": "ocm_462289",
    "name": "Atacadão Dia a Dia ",
    "latitude": -17.72412961098668,
    "longitude": -48.64193848726319,
    "address": "Área 49, Rua JB 21 Jardim Belvedere (GO-309, Caldas Novas - GO, 75680-001, Brazil, Caldas Novas , Minas Gerais ",
    "source": "OpenChargeMap"
  },
  {
    "id": "ocm_459136",
    "name": "Petrobras - Hot Petro Auto Posto",
    "latitude": -17.71477,
    "longitude": -48.677712,
    "address": "GO-213, 55, CALDAS NOVAS – GO, Caldas Novas ",
    "source": "OpenChargeMap"
  },
  {
    "id": "ocm_266227",
    "name": "SAU 6 - Eco 050 - Servico Apoio Usuario",
    "latitude": -18.70494023099667,
    "longitude": -48.19026863838894,
    "address": "BR-050, Araguari, Goias",
    "source": "OpenChargeMap"
  },
  {
    "id": "ocm_266713",
    "name": "SAU 2 - Eco050 - Servico Atendimento Usuario",
    "latitude": -17.28504093939128,
    "longitude": -47.757596088071466,
    "address": "BR-050, Goiás",
    "source": "OpenChargeMap"
  },
  {
    "id": "ocm_460534",
    "name": "ZAP CHARGE SERRA PARK",
    "latitude": -17.77127058738111,
    "longitude": -48.7558673310661,
    "address": "Rua Piaui Qdp8 Lt 14A - ESPLANADA , Rio Quente , goias ",
    "source": "OpenChargeMap"
  },
  {
    "id": "ocm_461332",
    "name": "[40kW] OTM Energia Solar",
    "latitude": -18.87211112381052,
    "longitude": -48.23501434310124,
    "address": "Al. Ecológica, 3356, Uberlândia, Minas Gerais",
    "source": "OpenChargeMap"
  },
  {
    "id": "ocm_191086",
    "name": "(re)energisa - Alsol Energias Renováveis",
    "latitude": -18.879340066968552,
    "longitude": -48.246967402756894,
    "address": "Avenida Maria Silva Garcia, Uberlandia, Minas Gerais",
    "source": "OpenChargeMap"
  },
  {
    "id": "ocm_460427",
    "name": "[80kW] OAG - Granja Marileusa",
    "latitude": -18.879764634306184,
    "longitude": -48.24617494695019,
    "address": "Av. Maria Silva Garcia, 385, Uberlândia, Minas Gerais",
    "source": "OpenChargeMap"
  },
  {
    "id": "ocm_461333",
    "name": "Ponto de Apoio - Pacaembu",
    "latitude": -18.881192219177397,
    "longitude": -48.2946744888536,
    "address": "Av. Sete de Setembro 989, Uberlândia, Minas Gerais",
    "source": "OpenChargeMap"
  },
  {
    "id": "ocm_260256",
    "name": "Audi Center Uberlândia",
    "latitude": -18.902171252952527,
    "longitude": -48.2659923801109,
    "address": "Avenida Afonso Pena, Uberlândia, Minas Gerais",
    "source": "OpenChargeMap"
  },
  {
    "id": "ocm_461331",
    "name": "[40kW] Village96",
    "latitude": -18.94463642007932,
    "longitude": -48.27276140476615,
    "address": "Rua Rafael Marino Neto, 96, Uberlândia, Minas Gerais",
    "source": "OpenChargeMap"
  },
  {
    "id": "ocm_461330",
    "name": "[40kW] Village96",
    "latitude": -18.94463642007932,
    "longitude": -48.27276140476615,
    "address": "Rua Rafael Marino Neto, 96, Uberlândia, Minas Gerais",
    "source": "OpenChargeMap"
  },
  {
    "id": "ocm_461326",
    "name": "[80kW] Pátio Vinhedos",
    "latitude": -18.952581934903833,
    "longitude": -48.269558419084035,
    "address": "Av. dos VInhedos, 50, Uberlândia, Minas Gerais",
    "source": "OpenChargeMap"
  },
  {
    "id": "ocm_461334",
    "name": "Eletroposto SA",
    "latitude": -18.946927233108493,
    "longitude": -48.35017812358971,
    "address": "Av. Tonico Rezende, 80, Uberlândia, Minas Gerais",
    "source": "OpenChargeMap"
  },
  {
    "id": "ocm_266715",
    "name": "Hotel e Restaurante Sonho Verde",
    "latitude": -16.994855261117905,
    "longitude": -47.753626856379014,
    "address": "BR-050, Ipameri, Goiás",
    "source": "OpenChargeMap"
  },
  {
    "id": "ocm_266714",
    "name": "SAU 1 - Eco050 - Servico Atendimento Usuario",
    "latitude": -16.91983622156762,
    "longitude": -47.69680186386796,
    "address": "BR-050, Ipameri, Goiás",
    "source": "OpenChargeMap"
  },
  {
    "id": "ocm_306489",
    "name": "BR-153",
    "latitude": -18.421580212336238,
    "longitude": -49.19422573985224,
    "address": "BR-153, Minas Gerais",
    "source": "OpenChargeMap"
  },
  {
    "id": "ocm_459277",
    "name": "Posto Alvorada ",
    "latitude": -18.133497465215328,
    "longitude": -49.28516020489417,
    "address": "BR 153, Km 670, Goiatuba, Goiás",
    "source": "OpenChargeMap"
  },
  {
    "id": "ocm_461327",
    "name": "[40kW] Posto Lammar Rota 050",
    "latitude": -16.769097682327185,
    "longitude": -47.61737095218921,
    "address": "Rua Tocantins, 1091, Cristalina, Goiás",
    "source": "OpenChargeMap"
  },
  {
    "id": "ocm_460360",
    "name": "Ity Hotel e Restaurante",
    "latitude": -16.767032,
    "longitude": -47.615085,
    "address": "R. Amazonas, Qd 51 Lt 01, Setor Noroeste, Cristalina, Goiás",
    "source": "OpenChargeMap"
  }
]