[
  {
    "id": "ocm_459124",
    "name": "Supermarket - Macaé",
    "latitude": -22.391107,
    "longitude": -41.808895,
    "address": "Av. Aluizio da Silva Gomes, 787 - Glória, Macaé - RJ, 27930-560, Macaé",
    "source": "OpenChargeMap"
  },
  {
    "id": "ocm_459125",
    "name": "SHOPSOLAR MACAÉ",
    "latitude": -22.381707,
    "longitude": -41.777387,
    "address": "R Teixeira de Gouveia , 1487 cajueiros Macaé, Macaé",
    "source": "OpenChargeMap"
  },
  {
    "id": "ocm_235286",
    "name": "Restaurante Armazém Rota 106",
    "latitude": -22.43107418128588,
    "longitude": -41.86470629161883,
    "address": "Avenida Ásia, Rio das Ostras, Rio de Janeiro",
    "source": "OpenChargeMap"
  },
  {
    "id": "ocm_303253",
    "name": "Hotel Evidence",
    "latitude": -21.88120118944778,
    "longitude": -42.684585117408176,
    "address": "BR 393 KM 104, Sapucaia - RJ, 25880-000, Sapucaia, RJ",
    "source": "OpenChargeMap"
  },
  {
    "id": "ocm_459128",
    "name": "Petrobras - Posto Líder 1",
    "latitude": -21.743383,
    "longitude": -41.33485,
    "address": "Posto Líder - Av. ⅩⅤ de Novembro, 563 - Caju, Campos dos Goytacazes - RJ, Brasil, Campos dos Goytacazes",
    "source": "OpenChargeMap"
  },
  {
    "id": "ocm_459120",
    "name": "Supermarket - Cabo Frio",
    "latitude": -22.678997,
    "longitude": -42.008718,
    "address": "Rod. Amaral Peixoto, 10324-10358 - Unamar, Cabo Frio - RJ, 28298-542, Cabo Frio",
    "source": "OpenChargeMap"
  },
  {
    "id": "ocm_235287",
    "name": "Posto Kid Dollar",
    "latitude": -22.61330532739018,
    "longitude": -42.408682643118965,
    "address": "Rodovia BR-101, KM-236, Silva Jardim, Rio de Janeiro",
    "source": "OpenChargeMap"
  },
  {
    "id": "ocm_303254",
    "name": "SAU EcoRioMinas Além Paraíba",
    "latitude": -21.748901897549757,
    "longitude": -42.730227462845846,
    "address": "773C+76 - Angustura, Além Paraíba, MG",
    "source": "OpenChargeMap"
  },
  {
    "id": "ocm_459119",
    "name": "Marina Búzios",
    "latitude": -22.748723,
    "longitude": -41.956629,
    "address": "Alameda Andorinhas - Lot. Praia Baia Formosa, Búzios - RJ, 28950-000, Búzios",
    "source": "OpenChargeMap"
  },
  {
    "id": "ocm_459118",
    "name": "Hotel Insólito - Búzios",
    "latitude": -22.769723,
    "longitude": -41.882934,
    "address": "R. E Dois Lot Pr Ferradura, 66 - Pr Ferradura, Búzios - RJ, 28950-000, Búzios",
    "source": "OpenChargeMap"
  },
  {
    "id": "ocm_459117",
    "name": "Petrobras - Centro Automotivo Novo Búzios",
    "latitude": -22.775087,
    "longitude": -41.925041,
    "address": " Avenida Jose Bento Ribeiro Dantas, Manguinhos, Armação Dos Búzios - 28950000, Búzios",
    "source": "OpenChargeMap"
  },
  {
    "id": "ocm_461226",
    "name": "Eletroposto Le Canton",
    "latitude": -22.384223756809433,
    "longitude": -42.856856277807424,
    "address": "R. Antônio da Silva, 300, Teresópolis, Rio de Janeiro",
    "source": "OpenChargeMap"
  },
  {
    "id": "ocm_459129",
    "name": "Reserva Caruara",
    "latitude": -21.7368,
    "longitude": -41.025117,
    "address": "Avenida Atlantica Iquipari, SN - Grussaí, São João da Barra - RJ, 28200-000, São João da Barra",
    "source": "OpenChargeMap"
  },
  {
    "id": "ocm_459803",
    "name": "Associação Pro Energia",
    "latitude": -22.415673988679373,
    "longitude": -42.952489369212344,
    "address": "R. Viriato Correia, 400 - Ermitage, Teresópolis, Rio de Janeiro",
    "source": "OpenChargeMap"
  },
  {
    "id": "ocm_194200",
    "name": "Teresópolis Shopping",
    "latitude": -22.41143127179805,
    "longitude": -42.965655579837176,
    "address": "Rua Edmundo Bittencourt 101, Teresópolis, RJ",
    "source": "OpenChargeMap"
  },
  {
    "id": "ocm_461036",
    "name": "Toca Da Cigarra",
    "latitude": -22.388355973274173,
    "longitude": -42.99796912599186,
    "address": "Estrada Fraze, Teresópolis, Rio de Janeiro",
    "source": "OpenChargeMap"
  },
  {
    "id": "ocm_459804",
    "name": "Restaurante Rabugentos",
    "latitude": -22.429835753625852,
    "longitude": -42.98008346541906,
    "address": "Av. Alberto Tôrres, 701 - Alto, Teresópolis, Rio de Janeiro",
    "source": "OpenChargeMap"
  },
  {
    "id": "ocm_300061",
    "name": "Petrobras - Posto Pesque e Pague",
    "latitude": -22.740718627547736,
    "longitude": -42.75593340023556,
    "address": "Rodovia Governador Mário Covas,127, Tanguá, Rio de Janeiro",
    "source": "OpenChargeMap"
  },
  {
    "id": "ocm_300060",
    "name": "Posto Amigão - Itaboraí (Casa do Alemão)",
    "latitude": -22.747185867323793,
    "longitude": -42.81212165150362,
    "address": "Rodovia Governador Mário Covas, 3170, Itaboraí, Rio de Janeiro ",
    "source": "OpenChargeMap"
  },
  {
    "id": "ocm_459123",
    "name": "Shopping Estação Locanda Itaipava",
    "latitude": -22.395638,
    "longitude": -43.133188,
    "address": "Estr. União e Indústria, 11000 - Itaipava, Petrópolis - RJ, 25730-735, Itaipava",
    "source": "OpenChargeMap"
  },
  {
    "id": "ocm_188889",
    "name": "Empório Maria Maria",
    "latitude": -22.400894,
    "longitude": -43.134197,
    "address": "Estrada União e Indústria, Petrópolis, Rio de Janeiro",
    "source": "OpenChargeMap"
  },
  {
    "id": "ocm_297869",
    "name": "Posto Amigão de Itaipava",
    "latitude": -22.405662755323092,
    "longitude": -43.14273215191042,
    "address": "Rodovia Washington Luiz, Itaipava, Rio de Janeiro",
    "source": "OpenChargeMap"
  },
  {
    "id": "ocm_459122",
    "name": "Petrobras - Ecorodo",
    "latitude": -22.437131,
    "longitude": -43.177589,
    "address": " ECORODO BR 040 COMBUSTIVEIS LTDA - BR-040 - Araras, Petrópolis - RJ, Brasil, Petrópolis",
    "source": "OpenChargeMap"
  },
  {
    "id": "ocm_297868",
    "name": "Kiosque do Alemão",
    "latitude": -22.437571081215836,
    "longitude": -43.17808441658872,
    "address": "Rodovia Washington Luiz, Petrópolis, Rio de Janeiro",
    "source": "OpenChargeMap"
  },
  {
    "id": "ocm_459127",
    "name": "Petrobras - Auto Posto Aeroporto",
    "latitude": -21.794564,
    "longitude": -43.367619,
    "address": "Av. Deusdedith Salgado, 2020 - Teixeiras, Juiz de Fora - MG, 36033-007, Juiz de Fora",
    "source": "OpenChargeMap"
  },
  {
    "id": "ocm_272801",
    "name": "Audi Center Juiz de Fora",
    "latitude": -21.816686009794765,
    "longitude": -43.37569379357285,
    "address": "Av. Deusdedith Salgado, 5555, Juiz de Fora, MG",
    "source": "OpenChargeMap"
  },
  {
    "id": "ocm_188890",
    "name": "BMW Euroville",
    "latitude": -21.80725859037888,
    "longitude": -43.376626921312436,
    "address": "Avenida Deusdedith Salgado, Juiz de Fora, Minas Gerais",
    "source": "OpenChargeMap"
  }
]