[
  {
    "id": "ocm_264456",
    "name": "Posto Bizungao III",
    "latitude": -22.957545008594167,
    "longitude": -48.865137274772565,
    "address": "Rodovia Presidente Castelo Branco, 247, Avaré, São Paulo",
    "source": "OpenChargeMap"
  },
  {
    "id": "ocm_459116",
    "name": "Petrobras - Eletroposto Plaza Santa Bárbara",
    "latitude": -22.813037,
    "longitude": -49.282155,
    "address": "AVENIDA MARGINAL, S/N LOTE 1 QUADRA Z GLEBA 1 - LOT. THERMAS DE .STA BARBARA, AGUAS DE SANTA BARBARA, complemento: rodovia Castelo Branco km 292,6, Santa Bárbara",
    "source": "OpenChargeMap"
  },
  {
    "id": "ocm_264455",
    "name": "Auto Posto Orbi",
    "latitude": -22.900472197697127,
    "longitude": -48.45001692776441,
    "address": "Rodovia Professor João Hipólito Martins, Botucatu, São Paulo",
    "source": "OpenChargeMap"
  },
  {
    "id": "ocm_306844",
    "name": "Rua Cambara",
    "latitude": -22.986309374606847,
    "longitude": -49.86765450478606,
    "address": "Rua Cambara, Ourinhos , São Paulo",
    "source": "OpenChargeMap"
  },
  {
    "id": "ocm_461892",
    "name": "Graal Ourinhos",
    "latitude": -22.980560848885105,
    "longitude": -49.902910758552025,
    "address": "Rodovia Transbrasiliana BR 153 KM345 , Ourinhos, São Paulo",
    "source": "OpenChargeMap"
  }
]