[
  {
    "id": "ocm_460674",
    "name": "UCS",
    "latitude": -29.16284855232839,
    "longitude": -51.1501356423712,
    "address": "Franciso Getulio Vargas 1130, Caxias do Sul, RS",
    "source": "OpenChargeMap"
  },
  {
    "id": "ocm_460676",
    "name": "UCS Teatro",
    "latitude": -29.162226443357902,
    "longitude": -51.15249714513328,
    "address": "Francisco Getulio Vargas 1130, Caxias do Sul, RS",
    "source": "OpenChargeMap"
  },
  {
    "id": "ocm_264452",
    "name": "Audi Caxias do Sul",
    "latitude": -29.171835482404994,
    "longitude": -51.21108100919571,
    "address": "Avenida Ruben Bento Alves, 8065, Caxias do Sul, Rio Grande do Sul",
    "source": "OpenChargeMap"
  },
  {
    "id": "ocm_235328",
    "name": "Posto SIM Caxias do Sul - Zletric",
    "latitude": -29.174835231435416,
    "longitude": -51.21402930064727,
    "address": "Rua João Nichele, 2227, Caxias do Sul, Rio Grande do Sul",
    "source": "OpenChargeMap"
  },
  {
    "id": "ocm_460001",
    "name": "Cafe Colonial Bela Vista - On Charge",
    "latitude": -29.371067688535483,
    "longitude": -50.86263885902159,
    "address": "Villa Chalés Gramado, Gramado, RS",
    "source": "OpenChargeMap"
  },
  {
    "id": "ocm_235053",
    "name": "Zletric - Posto SIM Gramado Centro",
    "latitude": -29.37969995771963,
    "longitude": -50.869380884317366,
    "address": "R. João Petry, 45, Gramado, Rio Grande do Sul",
    "source": "OpenChargeMap"
  },
  {
    "id": "ocm_267696",
    "name": "Kempinski Laje de Pedra",
    "latitude": -29.380489022307806,
    "longitude": -50.83043554234348,
    "address": "Rua das Flores, Canela, Rio Grande do Sul",
    "source": "OpenChargeMap"
  },
  {
    "id": "ocm_264453",
    "name": "Posto Gloria",
    "latitude": -28.50000316116656,
    "longitude": -50.950593956354965,
    "address": "BR-285, Vacaria, Rio Grande do Sul",
    "source": "OpenChargeMap"
  },
  {
    "id": "ocm_312820",
    "name": "Café Pasqualotto",
    "latitude": -29.268593104967685,
    "longitude": -50.302425313709705,
    "address": "RS453 - Rota Do Sol, Cambará Do Sul, RS",
    "source": "OpenChargeMap"
  },
  {
    "id": "ocm_209978",
    "name": "Fashion Outlet Novo Hamburgo",
    "latitude": -29.663541425765796,
    "longitude": -51.14242583068132,
    "address": "BR-116, KM 236, Novo Hamburgo, Rio Grande do Sul",
    "source": "OpenChargeMap"
  },
  {
    "id": "ocm_209983",
    "name": "Zletric - Posto SIM Retro",
    "latitude": -29.625832467156254,
    "longitude": -51.311042406904754,
    "address": "ERS-122, 3000, São Sebastião do Caí, Rio Grande do Sul",
    "source": "OpenChargeMap"
  },
  {
    "id": "ocm_290826",
    "name": "Rodovia Governador Leonel de Moura Brizola",
    "latitude": -29.692107611323813,
    "longitude": -51.70509274127477,
    "address": "Rodovia Governador Leonel de Moura Brizola, Rio Grande do Sul",
    "source": "OpenChargeMap"
  },
  {
    "id": "ocm_209976",
    "name": "Posto SIM Freeway - Zletric - BR-290",
    "latitude": -29.944303542054087,
    "longitude": -50.94738747379928,
    "address": "Rodovia BR 290, Km 69, S/N - Sítio Gaúcho, Gravataí, Rio Grande do Sul",
    "source": "OpenChargeMap"
  },
  {
    "id": "ocm_462153",
    "name": "ELETROPOSTOGP 001-Geração Própria",
    "latitude": -29.49320354792397,
    "longitude": -51.92751382683173,
    "address": "Novo Paraíso, 118 - Novo Paraíso, Estrela - RS, 95880-000, Brasil, Estrela, rio grande do sul",
    "source": "OpenChargeMap"
  },
  {
    "id": "ocm_461797",
    "name": "ELETROPOSTOGP",
    "latitude": -29.45025,
    "longitude": -51.96403,
    "address": "Rua Omar Moreira Líbio, 220 Sao Cristovao, Lajeado, Rio Grande do Sul",
    "source": "OpenChargeMap"
  },
  {
    "id": "ocm_313311",
    "name": "Castelo Charge",
    "latitude": -29.97193835063935,
    "longitude": -51.171420217032846,
    "address": "Jaime Vignoli 1053, Porto Alegre, rio grande do sul",
    "source": "OpenChargeMap"
  },
  {
    "id": "ocm_235052",
    "name": "Audi Center Porto Alegre",
    "latitude": -30.002196993962777,
    "longitude": -51.190906007259855,
    "address": "Avenida Sertório, 1441, Porto Alegre, Rio Grande do Sul",
    "source": "OpenChargeMap"
  },
  {
    "id": "ocm_311701",
    "name": "Centro Sul",
    "latitude": -30.025945191579336,
    "longitude": -51.11479127145114,
    "address": "Irmã Teresilda Steffen 506, Porto Alegre , Rio Grande do Sul",
    "source": "OpenChargeMap"
  },
  {
    "id": "ocm_278681",
    "name": "Viva Open Mall",
    "latitude": -30.028753035785634,
    "longitude": -51.15798192153784,
    "address": "Avenida Doutor Nilo Peçanha, Rio Grande do Sul",
    "source": "OpenChargeMap"
  },
  {
    "id": "ocm_308687",
    "name": "Casco Motors - Eletroposto Zeta Uno",
    "latitude": -30.0279441789025,
    "longitude": -51.17175540029962,
    "address": "Avenida Dr. Nilo Peçanha, 2061, Porto Alegre, Rio Grande do Sul",
    "source": "OpenChargeMap"
  },
  {
    "id": "ocm_274681",
    "name": "Rota Mercosul 03 Ufsm / Equatorial",
    "latitude": -30.012474150246824,
    "longitude": -51.315206781703296,
    "address": "Avenida das Indústrias, Eldorado do Sul, Rio Grande do Sul",
    "source": "OpenChargeMap"
  },
  {
    "id": "ocm_235051",
    "name": "Zletric - Posto SIM Paradouro Litoral",
    "latitude": -29.443718774339438,
    "longitude": -49.907901694855525,
    "address": "Avenida Inácio José Schaeffer, Três Cachoeiras, Rio Grande do Sul",
    "source": "OpenChargeMap"
  },
  {
    "id": "ocm_208304",
    "name": "Garagem Gigante",
    "latitude": -30.03225200371542,
    "longitude": -51.23193656308061,
    "address": "Rua Riachuelo, 981, Porto Alegre, Metropolitan Region of Porto Alegre",
    "source": "OpenChargeMap"
  },
  {
    "id": "ocm_312661",
    "name": "Queijo & Cia",
    "latitude": -28.00688554975389,
    "longitude": -50.540948652291945,
    "address": "BR116, Capao Alto, SC",
    "source": "OpenChargeMap"
  },
  {
    "id": "ocm_274688",
    "name": "Rota Mercosul 02 - Ufsm / Equatorial",
    "latitude": -29.85201952230647,
    "longitude": -50.24702267535784,
    "address": "Rodovia Governador Mário Covas, Osório, Rio Grande do Sul",
    "source": "OpenChargeMap"
  },
  {
    "id": "ocm_208305",
    "name": "IESA RENAULT",
    "latitude": -29.888446678255,
    "longitude": -50.276230202702266,
    "address": "BR-101, 1100 , Osório, Rio Grande do Sul",
    "source": "OpenChargeMap"
  },
  {
    "id": "ocm_303182",
    "name": "BarraShoppingSul",
    "latitude": -30.08350509834642,
    "longitude": -51.24530031937479,
    "address": "Av. Diário de Notícias, 300, Porto Alegre, RS",
    "source": "OpenChargeMap"
  },
  {
    "id": "ocm_279840",
    "name": "Posto BR - TERRA NOVA  -  Torres - RS",
    "latitude": -29.33136820744874,
    "longitude": -49.78514509646598,
    "address": "BR-101, 3701 - R. Belvedere, Torres, RS",
    "source": "OpenChargeMap"
  },
  {
    "id": "ocm_235327",
    "name": "Rota Mercosul 01 - Ufsm / Equatorial",
    "latitude": -29.344258722302705,
    "longitude": -49.78808797931194,
    "address": "Rodovia Governador Mário Covas, BR-101, Km 5, Torres, Rio Grande do Sul",
    "source": "OpenChargeMap"
  },
  {
    "id": "ocm_288938",
    "name": "Parador Grupo Iesa Xangri-la",
    "latitude": -29.779824025856634,
    "longitude": -50.02926997837051,
    "address": "Avenida Paraguassu 4525, Xangri-la",
    "source": "OpenChargeMap"
  },
  {
    "id": "ocm_274735",
    "name": "Shell Recharge / Posto Japones",
    "latitude": -29.102898423345486,
    "longitude": -49.63642654677,
    "address": "Rua Francisco Possamai, 1474, Sombrio, Santa Catarina",
    "source": "OpenChargeMap"
  }
]