[
  {
    "id": "ocm_308511",
    "name": "Amazônia Eletrovias - São Luís Posto HD 35",
    "latitude": -2.6890976125267656,
    "longitude": -44.299633906808026,
    "address": "Posto HD 35, BR-135, São Luís - MA, São Luís , Maranhão",
    "source": "OpenChargeMap"
  },
  {
    "id": "ocm_312056",
    "name": "Amazônia Eletrovias - São Luís Posto Confiança",
    "latitude": -2.560302467828606,
    "longitude": -44.247159560935756,
    "address": "Posto Confiança Av. dos Franceses, 25 - Tirirical, São Luís, Maranhão",
    "source": "OpenChargeMap"
  },
  {
    "id": "ocm_235031",
    "name": "Posto Magnolia 04",
    "latitude": -3.3322253857102453,
    "longitude": -44.445553071736526,
    "address": "BR-222, 672, Itapecuru-Mirim, Maranhão",
    "source": "OpenChargeMap"
  },
  {
    "id": "ocm_235030",
    "name": "Parque do Rangedor",
    "latitude": -2.495479124762909,
    "longitude": -44.2618499502216,
    "address": "Av. Avicencia, 1, São Luis, Maranhão",
    "source": "OpenChargeMap"
  },
  {
    "id": "ocm_304816",
    "name": "BR Super Carga - Galeria A",
    "latitude": -2.491635972918999,
    "longitude": -44.27669133964659,
    "address": "Avenida Sambaquis, 34, São Luis, Maranhão",
    "source": "OpenChargeMap"
  },
  {
    "id": "ocm_300178",
    "name": "BR Super Carga - Lanchonete 3B",
    "latitude": -3.5637782545104812,
    "longitude": -44.584953542511556,
    "address": "R do Comercio, 209, Miranda do Norte, Maranhão",
    "source": "OpenChargeMap"
  },
  {
    "id": "ocm_299165",
    "name": "Amazonia Plug - Posto Rota das Dunas",
    "latitude": -2.5240701947104895,
    "longitude": -43.26475554571721,
    "address": "MA-320, Santo Amaro do Maranhão, Maranhão",
    "source": "OpenChargeMap"
  },
  {
    "id": "ocm_308525",
    "name": "Amazônia Eletrovias - Chapadinha Posto Grande",
    "latitude": -3.7445889545223707,
    "longitude": -43.343161158143175,
    "address": "Posto Grande, MA 230, Chapadinha, Maranhão",
    "source": "OpenChargeMap"
  },
  {
    "id": "ocm_308526",
    "name": "Amazônia Plug - Vale Gastronomia",
    "latitude": -2.7811942785482415,
    "longitude": -42.81837438326886,
    "address": "MA 315, Vale Gastronomia, Barreirinhas, Maranhão",
    "source": "OpenChargeMap"
  },
  {
    "id": "ocm_306748",
    "name": "Posto Maracanã",
    "latitude": -4.254038831471576,
    "longitude": -44.4333869644305,
    "address": "BR-316, Alto Alegre do Maranhão, Maranhão",
    "source": "OpenChargeMap"
  },
  {
    "id": "ocm_235032",
    "name": "Posto Recreio",
    "latitude": -4.279682943636132,
    "longitude": -44.42240396434357,
    "address": "BR-135;BR-316, 1004, Alto Alegre do Maranhão, Maranhão",
    "source": "OpenChargeMap"
  }
]