[
  {
    "id": "ocm_300287",
    "name": "BR Super Carga - Cafe do Rancho",
    "latitude": -3.9030548235586764,
    "longitude": -41.71246721045404,
    "address": "Rua Projetada, Piracuruca, Piauí",
    "source": "OpenChargeMap"
  },
  {
    "id": "ocm_235272",
    "name": "BR Super Carga - GutGut Conveniência - 60kW - Piripiri/PI",
    "latitude": -4.317456425677436,
    "longitude": -41.78023437099657,
    "address": "BR-343, KM 190, Piripiri, Piauí",
    "source": "OpenChargeMap"
  },
  {
    "id": "ocm_300182",
    "name": "Pousada La Muralha - Planeta Charge",
    "latitude": -4.465344837455632,
    "longitude": -41.94499851054766,
    "address": "Avenida Santos Dumont, Capitão de Campos, Piauí",
    "source": "OpenChargeMap"
  },
  {
    "id": "ocm_300181",
    "name": "BR Super Carga - Restaurante Carnauba",
    "latitude": -4.842615263231565,
    "longitude": -42.18761583558066,
    "address": "Avenida Santo Antônio, Campo Maior, Piauí",
    "source": "OpenChargeMap"
  },
  {
    "id": "ocm_296012",
    "name": "DCC Energy - Posto Catatau",
    "latitude": -3.7446754429366393,
    "longitude": -41.00943976903801,
    "address": "BR-222, Tianguá, Ceará",
    "source": "OpenChargeMap"
  },
  {
    "id": "ocm_299164",
    "name": "BR Super Carga - VM Marina Clube / Faustino Restaurante",
    "latitude": -2.9091295519228453,
    "longitude": -41.78858523953477,
    "address": "Rua Doutor João Goulart, Piauí",
    "source": "OpenChargeMap"
  },
  {
    "id": "ocm_306007",
    "name": "Amazônia Plug - Barraca do Gabriel",
    "latitude": -2.9023627940058105,
    "longitude": -41.45984336268339,
    "address": "Praia do Maramar, Luis Correia, Piaui",
    "source": "OpenChargeMap"
  },
  {
    "id": "ocm_308524",
    "name": "Amazônia Plug - Restaurante O Capote",
    "latitude": -2.7723571129879474,
    "longitude": -42.44777024354954,
    "address": "Restaurante O Capote, MA 315, Tutóia, Maranhão",
    "source": "OpenChargeMap"
  },
  {
    "id": "ocm_300180",
    "name": "Lagom Volvo",
    "latitude": -5.080606241618796,
    "longitude": -42.76013190763351,
    "address": "Avenida João XXIII, Piauí",
    "source": "OpenChargeMap"
  },
  {
    "id": "ocm_306747",
    "name": "Hotel Arrey Express",
    "latitude": -5.081587131707479,
    "longitude": -42.7638407836472,
    "address": "Av. João XXIII, 3800, Teresina, PI",
    "source": "OpenChargeMap"
  },
  {
    "id": "ocm_300179",
    "name": "BR Super Carga - VMachado Zona Leste",
    "latitude": -5.062881432754494,
    "longitude": -42.79499014283854,
    "address": "Rua Visconde da Parnaíba, Teresina, Piauí",
    "source": "OpenChargeMap"
  },
  {
    "id": "ocm_235035",
    "name": "Audi Center Teresina",
    "latitude": -5.080204188168381,
    "longitude": -42.783784209741015,
    "address": "Avenida João XXIII, 1545, Teresina, Piaui",
    "source": "OpenChargeMap"
  },
  {
    "id": "ocm_308432",
    "name": "TEM CARREGADOR - EUROBUSINESS RAUL LOPES TERESINA",
    "latitude": -5.077145,
    "longitude": -42.79694,
    "address": "Av. Jóquei Clube, 299 Jóquei, , Teresina, Piauí",
    "source": "OpenChargeMap"
  },
  {
    "id": "ocm_279237",
    "name": "Eletroposto Parque da Cidadania",
    "latitude": -5.080838557450534,
    "longitude": -42.80465692471819,
    "address": "Rua Juliano Moreira, Teresina, Piauí",
    "source": "OpenChargeMap"
  }
]