[
  {
    "id": "ocm_299161",
    "name": "Planeta Net Telecom - Estacionamento",
    "latitude": -5.192727089178163,
    "longitude": -40.66709405297058,
    "address": "R. Francisco De Sousa Torres, 105, Crateús, Ceará",
    "source": "OpenChargeMap"
  },
  {
    "id": "ocm_235272",
    "name": "BR Super Carga - GutGut Conveniência - 60kW - Piripiri/PI",
    "latitude": -4.317456425677436,
    "longitude": -41.78023437099657,
    "address": "BR-343, KM 190, Piripiri, Piauí",
    "source": "OpenChargeMap"
  },
  {
    "id": "ocm_300182",
    "name": "Pousada La Muralha - Planeta Charge",
    "latitude": -4.465344837455632,
    "longitude": -41.94499851054766,
    "address": "Avenida Santos Dumont, Capitão de Campos, Piauí",
    "source": "OpenChargeMap"
  },
  {
    "id": "ocm_299160",
    "name": "BR Super Carga - AutoPosto Uniao",
    "latitude": -4.32361543991702,
    "longitude": -40.146958398040795,
    "address": "Av Jose Emidio Sales, 627, Santa Quitéria, Ceará",
    "source": "OpenChargeMap"
  },
  {
    "id": "ocm_300181",
    "name": "BR Super Carga - Restaurante Carnauba",
    "latitude": -4.842615263231565,
    "longitude": -42.18761583558066,
    "address": "Avenida Santo Antônio, Campo Maior, Piauí",
    "source": "OpenChargeMap"
  },
  {
    "id": "ocm_290861",
    "name": "Planeta Charge",
    "latitude": -5.992899183476339,
    "longitude": -40.29601581295509,
    "address": "Rua Francisca Clotilde, Tauá, Ceará",
    "source": "OpenChargeMap"
  },
  {
    "id": "ocm_296012",
    "name": "DCC Energy - Posto Catatau",
    "latitude": -3.7446754429366393,
    "longitude": -41.00943976903801,
    "address": "BR-222, Tianguá, Ceará",
    "source": "OpenChargeMap"
  },
  {
    "id": "ocm_300287",
    "name": "BR Super Carga - Cafe do Rancho",
    "latitude": -3.9030548235586764,
    "longitude": -41.71246721045404,
    "address": "Rua Projetada, Piracuruca, Piauí",
    "source": "OpenChargeMap"
  }
]