[
  {
    "id": "ocm_267298",
    "name": "Auto Posto e Pousada O Barateiro",
    "latitude": -6.403549007584716,
    "longitude": -38.890320243600236,
    "address": "Rodovia Deputado Tarcísio Monteiro, Icó, Ceará",
    "source": "OpenChargeMap"
  },
  {
    "id": "ocm_264466",
    "name": "Hotel Ribeira dos Icos",
    "latitude": -6.401033038486688,
    "longitude": -38.876579281730756,
    "address": "Rua Paraíba C, 1000, Ico, Ceara",
    "source": "OpenChargeMap"
  },
  {
    "id": "ocm_296956",
    "name": "BR Super Carga - Ello Hotel",
    "latitude": -6.384189690217653,
    "longitude": -39.26638807967288,
    "address": "CE-060, Iguatu, CE",
    "source": "OpenChargeMap"
  },
  {
    "id": "ocm_267311",
    "name": "Auto Posto e Churrascaria Mateus",
    "latitude": -5.734406699353485,
    "longitude": -38.5128731127478,
    "address": "Rodovia Santos Dumont, Jaguaribara, Ceará",
    "source": "OpenChargeMap"
  },
  {
    "id": "ocm_304815",
    "name": "BR Super Carga - Auto Posto 405",
    "latitude": -6.151940300986098,
    "longitude": -38.20589911717258,
    "address": "Rua Rota do Sol Dr. Nilton Figueiredo, 64, Pau dos Ferros, Rio Grande do Norte",
    "source": "OpenChargeMap"
  },
  {
    "id": "ocm_274689",
    "name": "Restaurante Divino 88 - Br Super Carga",
    "latitude": -5.1926120157410764,
    "longitude": -39.29015188055803,
    "address": "Rua Antonio Pinto de Mendonça, Quixeramobim, Ceará",
    "source": "OpenChargeMap"
  },
  {
    "id": "ocm_307511",
    "name": "Restaurante Pé de Serra",
    "latitude": -5.045644128440188,
    "longitude": -39.04841594258312,
    "address": "Rod. Br-122 Pres. Costa e Silva, Quixadá, CE",
    "source": "OpenChargeMap"
  },
  {
    "id": "ocm_306690",
    "name": "VAPT Cajazeiras | Grupo Barbosa Home Center ",
    "latitude": -6.90123354,
    "longitude": -38.56828009,
    "address": "BR-230, Km-507, Cajazeiras, PB",
    "source": "OpenChargeMap"
  },
  {
    "id": "ocm_299167",
    "name": "Volvo - Posto Chabocão",
    "latitude": -6.778683676082736,
    "longitude": -38.240498493714,
    "address": "Rodovia Governador Antônio Mariz, Sousa, Paraíba",
    "source": "OpenChargeMap"
  },
  {
    "id": "ocm_299955",
    "name": "BR Super Carga - Auto Posto Kariri",
    "latitude": -7.181971294398849,
    "longitude": -39.30993640610555,
    "address": "Avenida do Agricultor, 88, Juazeiro do Norte, Ceará",
    "source": "OpenChargeMap"
  },
  {
    "id": "ocm_299156",
    "name": "BR Super Carga - Murano Center Hotel",
    "latitude": -5.152898794163292,
    "longitude": -38.10080368938989,
    "address": "Rua Sindulfo Chaves, 1567, Limoeiro do Norte, Ceará",
    "source": "OpenChargeMap"
  },
  {
    "id": "ocm_300184",
    "name": "Cariri Solar Energia Solar",
    "latitude": -7.2163520142044035,
    "longitude": -39.31783416839005,
    "address": "R Das Flores 224, Juazeiro do Norte, Ceará",
    "source": "OpenChargeMap"
  },
  {
    "id": "ocm_290861",
    "name": "Planeta Charge",
    "latitude": -5.992899183476339,
    "longitude": -40.29601581295509,
    "address": "Rua Francisca Clotilde, Tauá, Ceará",
    "source": "OpenChargeMap"
  }
]