[
  {
    "id": "ocm_238225",
    "name": "Hotel Pousada Itajuipe",
    "latitude": -14.819402362816817,
    "longitude": -39.30421170361603,
    "address": "BR-415, Itabuna, Bahia",
    "source": "OpenChargeMap"
  },
  {
    "id": "ocm_238156",
    "name": "Pena Branca Hotel e Eventos",
    "latitude": -12.975356,
    "longitude": -39.276573,
    "address": "BR101, KM262, Rua do Amparo, Santo Antonio de Jesus, Bahia",
    "source": "OpenChargeMap"
  },
  {
    "id": "ocm_302213",
    "name": "PluGreen Ponto de Apoio 2 Irmaos",
    "latitude": -13.8605976715358,
    "longitude": -40.113712791381005,
    "address": "Avenida Governador Aurélio Viana, Bahia",
    "source": "OpenChargeMap"
  },
  {
    "id": "ocm_459138",
    "name": "HOUSI - Alive Vitória BA",
    "latitude": -12.990551,
    "longitude": -38.524543,
    "address": "Av. Sete de Setembro, 1883 - Vitória, Salvador - BA, 40080-004, Vitória",
    "source": "OpenChargeMap"
  },
  {
    "id": "ocm_299176",
    "name": "Posto Escola Petrobras",
    "latitude": -12.98184740487254,
    "longitude": -38.44990593949501,
    "address": "Avenida Tancredo Neves, Bahia",
    "source": "OpenChargeMap"
  },
  {
    "id": "ocm_459426",
    "name": "Carregador Byd Parvi Paralela",
    "latitude": -12.941559714550635,
    "longitude": -38.417319738012594,
    "address": "Avenida Luis Viana Filho, 6178, Salvador, bahia",
    "source": "OpenChargeMap"
  },
  {
    "id": "ocm_235046",
    "name": "Senai Cimatec - Corredor Verde Neoenergia",
    "latitude": -12.938945021076691,
    "longitude": -38.38708045357967,
    "address": "Avenida Orlando Gomes, 1845, Salvador, Bahia",
    "source": "OpenChargeMap"
  },
  {
    "id": "ocm_460033",
    "name": "Posto CIA",
    "latitude": -12.823036934385769,
    "longitude": -38.39901924794515,
    "address": "entrada do Posto shell - Posto itapagipe BA 526 est. CIA Aeroporto BA 526 KM10, BA-526, Simões Filho - BA, 43700-000, Simoes Filho,  Bahia",
    "source": "OpenChargeMap"
  }
]