[
  {
    "id": "ocm_460707",
    "name": "Cury energia ",
    "latitude": -20.341505893142354,
    "longitude": -49.19740781152893,
    "address": "Rua Balbina Ribeiro Silveira 170, Icém , SP",
    "source": "OpenChargeMap"
  },
  {
    "id": "ocm_461235",
    "name": "Vila Sete Conveniência",
    "latitude": -20.5723474971052,
    "longitude": -48.58027919974106,
    "address": "Av. Eng. Necker Carvalho de Camargo, 2530 - América, Barretos - SP, 14783-080, Brazil, Barretos , São Paulo ",
    "source": "OpenChargeMap"
  },
  {
    "id": "ocm_461712",
    "name": "North Shopping Barretos ",
    "latitude": -20.575007587751855,
    "longitude": -48.55849776749437,
    "address": "Conselheiro Antônio Prado, 1400 - Pedro Cavalini, Barretos - SP, 14784-200, Brazil, Barretos, São Paulo ",
    "source": "OpenChargeMap"
  },
  {
    "id": "ocm_312961",
    "name": "Eletroposto Kinsol - Rio Preto 2S",
    "latitude": -20.820475672408467,
    "longitude": -49.38370159936655,
    "address": "Av. Dr. Alberto Andaló, 3942, São José do Rio Preto, São Paulo",
    "source": "OpenChargeMap"
  },
  {
    "id": "ocm_267234",
    "name": "ATM EVs",
    "latitude": -20.850775099708386,
    "longitude": -49.41283756306791,
    "address": "Avenida Presidente Juscelino Kubitscheck de Oliveira, 3441, São José do Rio Preto, São Paulo",
    "source": "OpenChargeMap"
  },
  {
    "id": "ocm_460616",
    "name": "Volvo - Posto Caxuxa II - Uberaba - MG",
    "latitude": -19.5836927,
    "longitude": -48.0300057,
    "address": "Rod BR 50 KM 151 200 MTS, Uberaba, Minas Gerais",
    "source": "OpenChargeMap"
  },
  {
    "id": "ocm_461329",
    "name": "[80kW] Hotel Dan Inn",
    "latitude": -19.78108646380895,
    "longitude": -47.94528582750764,
    "address": "Av. Filomena Cartafina, 152, Uberaba, Minas Gerais",
    "source": "OpenChargeMap"
  },
  {
    "id": "ocm_461328",
    "name": "[40kW] Churrascaria Zebu",
    "latitude": -19.778124428911326,
    "longitude": -47.945086947240696,
    "address": "Av. Tonico dos Santos, 668, Uberaba, Minas Gerais",
    "source": "OpenChargeMap"
  },
  {
    "id": "ocm_312273",
    "name": "CDI",
    "latitude": -18.988844445304963,
    "longitude": -49.45696929157225,
    "address": "Avenida Nove, 454, Ituiutaba , mg",
    "source": "OpenChargeMap"
  },
  {
    "id": "ocm_461334",
    "name": "Eletroposto SA",
    "latitude": -18.946927233108493,
    "longitude": -48.35017812358971,
    "address": "Av. Tonico Rezende, 80, Uberlândia, Minas Gerais",
    "source": "OpenChargeMap"
  },
  {
    "id": "ocm_461326",
    "name": "[80kW] Pátio Vinhedos",
    "latitude": -18.952581934903833,
    "longitude": -48.269558419084035,
    "address": "Av. dos VInhedos, 50, Uberlândia, Minas Gerais",
    "source": "OpenChargeMap"
  },
  {
    "id": "ocm_461331",
    "name": "[40kW] Village96",
    "latitude": -18.94463642007932,
    "longitude": -48.27276140476615,
    "address": "Rua Rafael Marino Neto, 96, Uberlândia, Minas Gerais",
    "source": "OpenChargeMap"
  },
  {
    "id": "ocm_461330",
    "name": "[40kW] Village96",
    "latitude": -18.94463642007932,
    "longitude": -48.27276140476615,
    "address": "Rua Rafael Marino Neto, 96, Uberlândia, Minas Gerais",
    "source": "OpenChargeMap"
  },
  {
    "id": "ocm_260256",
    "name": "Audi Center Uberlândia",
    "latitude": -18.902171252952527,
    "longitude": -48.2659923801109,
    "address": "Avenida Afonso Pena, Uberlândia, Minas Gerais",
    "source": "OpenChargeMap"
  },
  {
    "id": "ocm_461333",
    "name": "Ponto de Apoio - Pacaembu",
    "latitude": -18.881192219177397,
    "longitude": -48.2946744888536,
    "address": "Av. Sete de Setembro 989, Uberlândia, Minas Gerais",
    "source": "OpenChargeMap"
  },
  {
    "id": "ocm_191086",
    "name": "(re)energisa - Alsol Energias Renováveis",
    "latitude": -18.879340066968552,
    "longitude": -48.246967402756894,
    "address": "Avenida Maria Silva Garcia, Uberlandia, Minas Gerais",
    "source": "OpenChargeMap"
  },
  {
    "id": "ocm_460427",
    "name": "[80kW] OAG - Granja Marileusa",
    "latitude": -18.879764634306184,
    "longitude": -48.24617494695019,
    "address": "Av. Maria Silva Garcia, 385, Uberlândia, Minas Gerais",
    "source": "OpenChargeMap"
  },
  {
    "id": "ocm_461332",
    "name": "[40kW] OTM Energia Solar",
    "latitude": -18.87211112381052,
    "longitude": -48.23501434310124,
    "address": "Al. Ecológica, 3356, Uberlândia, Minas Gerais",
    "source": "OpenChargeMap"
  }
]