[
  {
    "id": "ocm_204433",
    "name": "Volvo Charger - Posto Ongaratto 500",
    "latitude": -24.78074397448374,
    "longitude": -48.18600783359733,
    "address": "Rod. Régis Bittencourt, 500, Cajati, São Paulo",
    "source": "OpenChargeMap"
  },
  {
    "id": "ocm_212402",
    "name": "Eletroposto Copel Paranaguá",
    "latitude": -25.524157158896116,
    "longitude": -48.51183778643099,
    "address": "Rua João Estevão 800, Paranguá, Paraná",
    "source": "OpenChargeMap"
  },
  {
    "id": "ocm_259628",
    "name": "Posto Fase Quattro",
    "latitude": -24.33100568490397,
    "longitude": -47.630335244289085,
    "address": "Rodovia Régis Bittencourt (BR-116) km 413,8, Juquiá, São Paulo",
    "source": "OpenChargeMap"
  },
  {
    "id": "ocm_302563",
    "name": "Ev Eletroposto Restaurante Serra Da Graciosa",
    "latitude": -25.318308965398444,
    "longitude": -49.01801328361768,
    "address": "R. Doraci Ribeiro Prestes, 45, Quatro Barras, PR",
    "source": "OpenChargeMap"
  },
  {
    "id": "ocm_259809",
    "name": "Posto Tulio Caraguatá",
    "latitude": -25.329076754299123,
    "longitude": -49.02997239096226,
    "address": "BR-116, km 68, Campina Grande do Sul, Paraná",
    "source": "OpenChargeMap"
  },
  {
    "id": "ocm_304138",
    "name": "Estação Maru",
    "latitude": -25.531005806543618,
    "longitude": -49.086482207289464,
    "address": "Rodovia do Café Governador Ney Braga, Paraná",
    "source": "OpenChargeMap"
  },
  {
    "id": "ocm_303434",
    "name": "Vale Sul",
    "latitude": -25.51911340490797,
    "longitude": -49.199901546163346,
    "address": "Av Das Torres, 1680, São José Dos Pinhais, paraná",
    "source": "OpenChargeMap"
  },
  {
    "id": "ocm_260182",
    "name": "Audi Center Alto da XV",
    "latitude": -25.42092894575275,
    "longitude": -49.24840947936934,
    "address": "Rua Padre Germano Mayer, 1629, Curitiba, Paraná",
    "source": "OpenChargeMap"
  },
  {
    "id": "ocm_191277",
    "name": "Hotel Slaviero Essential - Zletric",
    "latitude": -25.53602154104199,
    "longitude": -49.1939222861522,
    "address": "Avenida das Torres, 3450, São José dos Pinhais, Paraná",
    "source": "OpenChargeMap"
  },
  {
    "id": "ocm_313975",
    "name": "Posto Pelanda 27",
    "latitude": -25.67559900594678,
    "longitude": -49.15101745747177,
    "address": "BR-376, 485, São José dos Pinhais",
    "source": "OpenChargeMap"
  },
  {
    "id": "ocm_235321",
    "name": "Alumifix Solar",
    "latitude": -25.49194425292336,
    "longitude": -49.27577016669113,
    "address": "Rua Major Vicente Castro, 2777, Curitiba, Paraná",
    "source": "OpenChargeMap"
  },
  {
    "id": "ocm_235318",
    "name": "Open Point Volvo Cars - Grupo Servopa",
    "latitude": -25.439376897734718,
    "longitude": -49.300986875145384,
    "address": "Rua Jerônimo Durski, 925, Curitiba, Paraná",
    "source": "OpenChargeMap"
  },
  {
    "id": "ocm_313974",
    "name": "Eletroposto CNF - Nogueira",
    "latitude": -25.73061710889489,
    "longitude": -49.13430282079102,
    "address": "BR-376, s/n, São José dos Pinhais, Parana",
    "source": "OpenChargeMap"
  },
  {
    "id": "ocm_191634",
    "name": "Copel Telecomunicações",
    "latitude": -25.432603925814988,
    "longitude": -49.339198023151965,
    "address": "Rua José Izidoro Biazetto, 158, Curitiba, PR",
    "source": "OpenChargeMap"
  },
  {
    "id": "ocm_304035",
    "name": "Plasticos Paraná",
    "latitude": -25.432298783975696,
    "longitude": -49.36339247467453,
    "address": "Avenida Juscelino Kubitschek de Oliveira (Marginal Leste), Paraná",
    "source": "OpenChargeMap"
  },
  {
    "id": "ocm_303433",
    "name": "Reataurante Merlo",
    "latitude": -26.052004085249827,
    "longitude": -48.8599463520286,
    "address": "R De Caxias, 395, Garuva, Santa Catarina",
    "source": "OpenChargeMap"
  },
  {
    "id": "ocm_306612",
    "name": "Posto Luz da Lua - InWatts",
    "latitude": -25.46926759912884,
    "longitude": -49.35278832712896,
    "address": "Rua Juarez Bertolini, Paraná",
    "source": "OpenChargeMap"
  }
]