[
  {
    "id": "ocm_212402",
    "name": "Eletroposto Copel Paranaguá",
    "latitude": -25.524157158896116,
    "longitude": -48.51183778643099,
    "address": "Rua João Estevão 800, Paranguá, Paraná",
    "source": "OpenChargeMap"
  },
  {
    "id": "ocm_303433",
    "name": "Reataurante Merlo",
    "latitude": -26.052004085249827,
    "longitude": -48.8599463520286,
    "address": "R De Caxias, 395, Garuva, Santa Catarina",
    "source": "OpenChargeMap"
  },
  {
    "id": "ocm_303432",
    "name": "Metronorte",
    "latitude": -26.294601266589737,
    "longitude": -48.85937348014434,
    "address": "Max Colin 1701, Joinville, Santa Catarina",
    "source": "OpenChargeMap"
  },
  {
    "id": "ocm_313971",
    "name": "Posto SIM Sinuelo Norte",
    "latitude": -26.51612664395369,
    "longitude": -48.71910983516898,
    "address": "BR-101, Km 71, Araquari , Santa Catarina",
    "source": "OpenChargeMap"
  },
  {
    "id": "ocm_191178",
    "name": "Posto Sinuelo Sentido Sul",
    "latitude": -26.51696691793179,
    "longitude": -48.72066765247871,
    "address": "Rodovia Governador Mário Covas, Araquari, Santa Catarina",
    "source": "OpenChargeMap"
  },
  {
    "id": "ocm_279634",
    "name": "Posto Rudnick",
    "latitude": -26.184866151320456,
    "longitude": -48.91007155237844,
    "address": "R. Quinze de Outubro, 365 - Rio Bonito (Piraberaba), Joinville - SC, 89239, Brazil, Joinville , Santa Catarina ",
    "source": "OpenChargeMap"
  },
  {
    "id": "ocm_313973",
    "name": "Eletroposto Celesc GutBrau",
    "latitude": -26.296883307693662,
    "longitude": -48.88326702551308,
    "address": "R. XV de Novembro, 4621, Joinville , Santa Catarina",
    "source": "OpenChargeMap"
  },
  {
    "id": "ocm_313972",
    "name": "Centro Turístico e Comercial da Expoville",
    "latitude": -26.298740969736606,
    "longitude": -48.88301210780986,
    "address": "R. XV de Novembro, 4315, Joinville , Santa Catarina",
    "source": "OpenChargeMap"
  },
  {
    "id": "ocm_313970",
    "name": "Parada Ferretti",
    "latitude": -26.687808049252077,
    "longitude": -48.695148336621,
    "address": "BR-101, Km 91, Barra Velha, Santa Catarina",
    "source": "OpenChargeMap"
  },
  {
    "id": "ocm_303430",
    "name": "Posto Graal Parada Norte",
    "latitude": -26.77939474459577,
    "longitude": -48.6841959037032,
    "address": "Rod BR-101 Sn Esquina Com R Manoel Ferreira, Balneario Piçarras, Santa Catarina",
    "source": "OpenChargeMap"
  },
  {
    "id": "ocm_303431",
    "name": "Posto Graal Parada Sul",
    "latitude": -26.780493627574984,
    "longitude": -48.68520187872031,
    "address": "BR-101 KM 102, Balneario Piçarras, Santa Catarina",
    "source": "OpenChargeMap"
  },
  {
    "id": "ocm_313974",
    "name": "Eletroposto CNF - Nogueira",
    "latitude": -25.73061710889489,
    "longitude": -49.13430282079102,
    "address": "BR-376, s/n, São José dos Pinhais, Parana",
    "source": "OpenChargeMap"
  },
  {
    "id": "ocm_304138",
    "name": "Estação Maru",
    "latitude": -25.531005806543618,
    "longitude": -49.086482207289464,
    "address": "Rodovia do Café Governador Ney Braga, Paraná",
    "source": "OpenChargeMap"
  },
  {
    "id": "ocm_313975",
    "name": "Posto Pelanda 27",
    "latitude": -25.67559900594678,
    "longitude": -49.15101745747177,
    "address": "BR-376, 485, São José dos Pinhais",
    "source": "OpenChargeMap"
  },
  {
    "id": "ocm_260181",
    "name": "Posto Ipiranga Galo (antigo posto universitário )",
    "latitude": -26.91893099322583,
    "longitude": -48.67029064316404,
    "address": "Rua José Testoni, Itajaí, Santa Catarina",
    "source": "OpenChargeMap"
  },
  {
    "id": "ocm_304105",
    "name": "Posto SONHO MEU Brava",
    "latitude": -26.957210653482214,
    "longitude": -48.63909446049047,
    "address": "Av. do Estado Dalmo Vieira, 133, Balneário Camboriú, Santa Catarina",
    "source": "OpenChargeMap"
  },
  {
    "id": "ocm_235326",
    "name": "Shell Recharge | Posto Agricopel 12 - Itajaí SC",
    "latitude": -26.921904672441613,
    "longitude": -48.70741613269445,
    "address": "Marginal BR 101, Km 125, São Vicente, Santa Catarina",
    "source": "OpenChargeMap"
  },
  {
    "id": "ocm_302563",
    "name": "Ev Eletroposto Restaurante Serra Da Graciosa",
    "latitude": -25.318308965398444,
    "longitude": -49.01801328361768,
    "address": "R. Doraci Ribeiro Prestes, 45, Quatro Barras, PR",
    "source": "OpenChargeMap"
  },
  {
    "id": "ocm_259809",
    "name": "Posto Tulio Caraguatá",
    "latitude": -25.329076754299123,
    "longitude": -49.02997239096226,
    "address": "BR-116, km 68, Campina Grande do Sul, Paraná",
    "source": "OpenChargeMap"
  },
  {
    "id": "ocm_313969",
    "name": "Posto Américan Oil",
    "latitude": -27.027322029350955,
    "longitude": -48.60538277352714,
    "address": "BR-101, Km 138, Balneário Camboriú, Santa Catarina",
    "source": "OpenChargeMap"
  },
  {
    "id": "ocm_191277",
    "name": "Hotel Slaviero Essential - Zletric",
    "latitude": -25.53602154104199,
    "longitude": -49.1939222861522,
    "address": "Avenida das Torres, 3450, São José dos Pinhais, Paraná",
    "source": "OpenChargeMap"
  },
  {
    "id": "ocm_303434",
    "name": "Vale Sul",
    "latitude": -25.51911340490797,
    "longitude": -49.199901546163346,
    "address": "Av Das Torres, 1680, São José Dos Pinhais, paraná",
    "source": "OpenChargeMap"
  },
  {
    "id": "ocm_313968",
    "name": "Blue Sea Hotel",
    "latitude": -27.066575627053624,
    "longitude": -48.59523145906519,
    "address": "R. 1106, 100, Itapema , Santa Catarina",
    "source": "OpenChargeMap"
  },
  {
    "id": "ocm_313967",
    "name": "Di Paolo",
    "latitude": -27.06624196398885,
    "longitude": -48.59637396333983,
    "address": "BR-101, km 143, 720, Itapema , Santa Catarina",
    "source": "OpenChargeMap"
  },
  {
    "id": "ocm_204433",
    "name": "Volvo Charger - Posto Ongaratto 500",
    "latitude": -24.78074397448374,
    "longitude": -48.18600783359733,
    "address": "Rod. Régis Bittencourt, 500, Cajati, São Paulo",
    "source": "OpenChargeMap"
  },
  {
    "id": "ocm_235321",
    "name": "Alumifix Solar",
    "latitude": -25.49194425292336,
    "longitude": -49.27577016669113,
    "address": "Rua Major Vicente Castro, 2777, Curitiba, Paraná",
    "source": "OpenChargeMap"
  },
  {
    "id": "ocm_260182",
    "name": "Audi Center Alto da XV",
    "latitude": -25.42092894575275,
    "longitude": -49.24840947936934,
    "address": "Rua Padre Germano Mayer, 1629, Curitiba, Paraná",
    "source": "OpenChargeMap"
  },
  {
    "id": "ocm_191918",
    "name": "Posto Angeloni Porto Belo",
    "latitude": -27.173887366451417,
    "longitude": -48.61113122231919,
    "address": "Rodovia BR 101, km 156, Porto Belo, SC",
    "source": "OpenChargeMap"
  },
  {
    "id": "ocm_235318",
    "name": "Open Point Volvo Cars - Grupo Servopa",
    "latitude": -25.439376897734718,
    "longitude": -49.300986875145384,
    "address": "Rua Jerônimo Durski, 925, Curitiba, Paraná",
    "source": "OpenChargeMap"
  },
  {
    "id": "ocm_313966",
    "name": "Porto Belo Outlet Premium",
    "latitude": -27.20231096708377,
    "longitude": -48.6138152805612,
    "address": "BR-101, KM 159, Porto Belo, Santa Catarina",
    "source": "OpenChargeMap"
  },
  {
    "id": "ocm_306612",
    "name": "Posto Luz da Lua - InWatts",
    "latitude": -25.46926759912884,
    "longitude": -49.35278832712896,
    "address": "Rua Juarez Bertolini, Paraná",
    "source": "OpenChargeMap"
  },
  {
    "id": "ocm_191634",
    "name": "Copel Telecomunicações",
    "latitude": -25.432603925814988,
    "longitude": -49.339198023151965,
    "address": "Rua José Izidoro Biazetto, 158, Curitiba, PR",
    "source": "OpenChargeMap"
  }
]