[
  {
    "id": "ocm_301725",
    "name": "EV ELETROPOSTO - Hotel Franco",
    "latitude": -26.25533521248223,
    "longitude": -53.633326204084426,
    "address": "Av. Paraná, n° 10 - Centro, Dionísio Cerqueira - SC, 89950-000, Dionisio Cequeira, Santa Catarina",
    "source": "OpenChargeMap"
  },
  {
    "id": "ocm_193478",
    "name": "Auto Posto Matelandia Ipiranga",
    "latitude": -25.24312364701521,
    "longitude": -53.97937417173915,
    "address": "Av. Juscelino Kubitscheck de Oliveira, 1200, Matelândia, Paraná",
    "source": "OpenChargeMap"
  },
  {
    "id": "ocm_193479",
    "name": "Centro de Recepção de Visitantes Itaipu",
    "latitude": -25.447631023271455,
    "longitude": -54.58478914190316,
    "address": "Avenida Tancredo Neves 12138, Foz do Iguaçu, Paraná",
    "source": "OpenChargeMap"
  },
  {
    "id": "ocm_193477",
    "name": "Posto Pra Frente Brasil",
    "latitude": -24.99011269059423,
    "longitude": -53.508101673792225,
    "address": "BR-277 km 596, Cascavel, Paraná",
    "source": "OpenChargeMap"
  },
  {
    "id": "ocm_306610",
    "name": "Parada do Mano Restaurante",
    "latitude": -24.97875923409137,
    "longitude": -53.49158696874042,
    "address": "Rua Mylla, Paraná",
    "source": "OpenChargeMap"
  },
  {
    "id": "ocm_312762",
    "name": "Shopping Catuai - Cia Charge",
    "latitude": -24.948020793977875,
    "longitude": -53.43503541397256,
    "address": "Av. Brasil, 3545, Cascavel, PR",
    "source": "OpenChargeMap"
  },
  {
    "id": "ocm_306611",
    "name": "BYD Cascavel",
    "latitude": -24.954332420032742,
    "longitude": -53.42055319105481,
    "address": "Rua Martin Afonso de Souza, Paraná",
    "source": "OpenChargeMap"
  },
  {
    "id": "ocm_301455",
    "name": "Bionova - Carregadores e Mobilidade Elétrica",
    "latitude": -24.95080460430907,
    "longitude": -53.42589163448565,
    "address": "Rua Rio Negro, Paraná",
    "source": "OpenChargeMap"
  },
  {
    "id": "ocm_193476",
    "name": "Restaurante Choupana",
    "latitude": -25.102012310256754,
    "longitude": -53.041478340948174,
    "address": "BR-277 km 540, Ibema, Paraná",
    "source": "OpenChargeMap"
  }
]