{"type":"FeatureCollection","features":[{"type":"Feature","geometry":{"type":"Point","coordinates":[-71.5482706,-33.0089245]},"properties":{"id":"gpoi_ChIJQTEpdMLdiZYRfYfirNqrQZY","name":"Mall Marina","address":"& - 14 Nte. 821, Avenida Libertad 1348, Viña del Mar","source":"GooglePlaces","type":"shopping_mall"}},{"type":"Feature","geometry":{"type":"Point","coordinates":[-71.62320059999999,-33.045195]},"properties":{"id":"gpoi_ChIJf3wmjyjhiZYRdbJHXDYC8eo","name":"Total Printer","address":"Condell 1350, Valparaíso, Valparaíso","source":"GooglePlaces","type":"shopping_mall"}},{"type":"Feature","geometry":{"type":"Point","coordinates":[-71.6212379,-33.0468391]},"properties":{"id":"gpoi_ChIJWx6c5SfhiZYRKgFBpWB79PM","name":"ReloadPC ltda","address":"Huito 572, Valparaíso, Valparaíso","source":"GooglePlaces","type":"shopping_mall"}},{"type":"Feature","geometry":{"type":"Point","coordinates":[-71.604964,-33.042934]},"properties":{"id":"gpoi_ChIJY659f8_giZYR2L4zkOZCwbI","name":"Paris","address":"Avenida Argentina 51, Mall Portal, Valparaíso","source":"GooglePlaces","type":"shopping_mall"}},{"type":"Feature","geometry":{"type":"Point","coordinates":[-71.6047426,-33.044522]},"properties":{"id":"gpoi_ChIJGfGXf8_giZYR8SdO0Rt1a5I","name":"Portal Valparaíso","address":"Avenida Argentina 51, Valparaíso","source":"GooglePlaces","type":"shopping_mall"}},{"type":"Feature","geometry":{"type":"Point","coordinates":[-71.58515419999999,-33.0967103]},"properties":{"id":"gpoi_ChIJv9GojxLgiZYRDI_ib4neSHA","name":"Bononato Maquinarias","address":"Valparaíso","source":"GooglePlaces","type":"shopping_mall"}},{"type":"Feature","geometry":{"type":"Point","coordinates":[-71.5581342,-33.0200111]},"properties":{"id":"gpoi_ChIJ5-dufOPdiZYRmk8Pz45pdRw","name":"Edificio Casino Plaza","address":"5 - 1/2 Poniente 151, Viña del Mar, Viña del Mar","source":"GooglePlaces","type":"shopping_mall"}},{"type":"Feature","geometry":{"type":"Point","coordinates":[-71.5573646,-33.0241083]},"properties":{"id":"gpoi_ChIJcWd9YuLdiZYRui8XD8OkcjQ","name":"Galeria Fontana","address":"Avenida Valparaíso 363, local 205, Viña del Mar","source":"GooglePlaces","type":"shopping_mall"}},{"type":"Feature","geometry":{"type":"Point","coordinates":[-71.5560675,-33.0241549]},"properties":{"id":"gpoi_ChIJ45uVDOLdiZYRRd2E4Qib1vg","name":"Galeria Cristal","address":"Avenida Valparaíso 469, Viña del Mar","source":"GooglePlaces","type":"shopping_mall"}},{"type":"Feature","geometry":{"type":"Point","coordinates":[-71.5543814,-33.0150029]},"properties":{"id":"gpoi_ChIJw57NT5jXiZYRlGiSSk-rnBg","name":"Magia y Cristales","address":"8 Norte 310, Viña del Mar","source":"GooglePlaces","type":"shopping_mall"}},{"type":"Feature","geometry":{"type":"Point","coordinates":[-71.5544601,-33.0217699]},"properties":{"id":"gpoi_ChIJxc348-bdiZYR0m6pbBS8y_E","name":"Alma Sana espacio de tarapias integrales.","address":"1 Norte 461, oficina 508, Viña del Mar, Viña del Mar","source":"GooglePlaces","type":"shopping_mall"}},{"type":"Feature","geometry":{"type":"Point","coordinates":[-71.5532218,-33.0239333]},"properties":{"id":"gpoi_ChIJGdujXOLdiZYRxGsFac7Fsxo","name":"First Security","address":"Arlegui 646, Viña del Mar, Viña del Mar","source":"GooglePlaces","type":"shopping_mall"}},{"type":"Feature","geometry":{"type":"Point","coordinates":[-71.5526763,-33.0210873]},"properties":{"id":"gpoi_ChIJfU-5gBJvYpYRdPugseC2M6M","name":"DISTRIBUIDOR INDEPENDIENTE DE HERBALIFE","address":"1 Poniente 123, Viña del Mar","source":"GooglePlaces","type":"shopping_mall"}},{"type":"Feature","geometry":{"type":"Point","coordinates":[-71.5489698,-33.0093217]},"properties":{"id":"gpoi_ChIJpRt02endiZYRKBJQAjpF15c","name":"DIAGNOMAR","address":"Avenida Libertad 1279, Valparaíso, Viña del Mar","source":"GooglePlaces","type":"shopping_mall"}},{"type":"Feature","geometry":{"type":"Point","coordinates":[-71.5436426,-33.0259721]},"properties":{"id":"gpoi_ChIJRU2rM3TeiZYRx2pz1c16p-s","name":"Condominio Viña Neoriente, Centro Viña","address":"Peñablanca 171-77, Viña del Mar, Viña del Mar","source":"GooglePlaces","type":"shopping_mall"}},{"type":"Feature","geometry":{"type":"Point","coordinates":[-71.5427701,-33.0115005]},"properties":{"id":"gpoi_ChIJ_cmyV8PdiZYRazU_JEFmDgg","name":"Mercado Comercial Calle San Antonio","address":"San Antonio 971, Viña del Mar, Viña del Mar","source":"GooglePlaces","type":"shopping_mall"}},{"type":"Feature","geometry":{"type":"Point","coordinates":[-71.54305360000001,-32.9709593]},"properties":{"id":"gpoi_ChIJBccX1A3diZYRwPY7MCqrfFY","name":"Plaza Reñaca","address":"Av. Borgoño, Plaza Reñaca 14.580, Viña del Mar, Viña del Mar","source":"GooglePlaces","type":"shopping_mall"}},{"type":"Feature","geometry":{"type":"Point","coordinates":[-71.56111940000001,-33.1172808]},"properties":{"id":"gpoi_ChIJB8fjUFd1YpYRUWImXInUhBI","name":"Atexo INDUSTRIAL","address":"Acceso A Ruta 68, Placilla, Valparaíso","source":"GooglePlaces","type":"shopping_mall"}},{"type":"Feature","geometry":{"type":"Point","coordinates":[-70.7048661,-33.3313593]},"properties":{"id":"gpoi_ChIJxzcwqFDHYpYRAgjj6GV-ADw","name":"Polo Ralph Lauren","address":"San Ignacio 500, Quilicura, Quilicura","source":"GooglePlaces","type":"shopping_mall"}},{"type":"Feature","geometry":{"type":"Point","coordinates":[-70.7123754,-33.3347846]},"properties":{"id":"gpoi_ChIJW4ztyVPHYpYREDIDVrzK4P8","name":"Easton Outlet Mall","address":"Avenida Presidente Eduardo Frei Montalva 9709, Quilicura","source":"GooglePlaces","type":"shopping_mall"}},{"type":"Feature","geometry":{"type":"Point","coordinates":[-70.9539602,-32.8420978]},"properties":{"id":"gpoi_ChIJlb9kYio7iJYRe4ihODA6aJs","name":"Mayfer Ltda","address":"Avenida José Manuel Balmaceda 135, Llay Llay, Llaillay","source":"GooglePlaces","type":"shopping_mall"}},{"type":"Feature","geometry":{"type":"Point","coordinates":[-71.0701704,-32.84099699999999]},"properties":{"id":"gpoi_ChIJmfUufL8xiJYRipU6lP3MxAc","name":"Deitan Solutions","address":"km 97, Panamericana Norte, Hijuelas, Hijuelas","source":"GooglePlaces","type":"shopping_mall"}},{"type":"Feature","geometry":{"type":"Point","coordinates":[-71.2549875,-33.0180347]},"properties":{"id":"gpoi_ChIJG_NvSkzUiZYR0TmTbzNaIx4","name":"Minimarket \"Where Roberto\"","address":"La Victoria 1787, Limache, Limache","source":"GooglePlaces","type":"shopping_mall"}},{"type":"Feature","geometry":{"type":"Point","coordinates":[-71.2583916,-33.0114169]},"properties":{"id":"gpoi_ChIJkQxdA0bUiZYRXmuSiSlRicM","name":"Compumundo Limache","address":"Andrés Bello 406, Limache, Limache","source":"GooglePlaces","type":"shopping_mall"}},{"type":"Feature","geometry":{"type":"Point","coordinates":[-71.26824119999999,-33.0026045]},"properties":{"id":"gpoi_ChIJI806uhXUiZYRu1BIJxpADr0","name":"Paseo Shopping Araucarias","address":"Avenida Palmira Romano Sur 405, Limache","source":"GooglePlaces","type":"shopping_mall"}},{"type":"Feature","geometry":{"type":"Point","coordinates":[-71.2347664,-32.8756105]},"properties":{"id":"gpoi_ChIJ0xnHJHfNiZYRVS-PkpqEklk","name":"Portal Cencosud Quillota","address":"Rafael Ariztía 580, Quillota, Quillota","source":"GooglePlaces","type":"shopping_mall"}},{"type":"Feature","geometry":{"type":"Point","coordinates":[-71.24415580000002,-32.8837682]},"properties":{"id":"gpoi_ChIJi4rHwoPNiZYRpG6eWEzyqg0","name":"DON FILTRO - Todo Para Maquinaria Y Automóviles","address":"Blanco Encalada 575, Quillota, Quillota","source":"GooglePlaces","type":"shopping_mall"}},{"type":"Feature","geometry":{"type":"Point","coordinates":[-71.2470496,-32.8825821]},"properties":{"id":"gpoi_ChIJ7TvhY4TNiZYRR4CG_5kXoA8","name":"Galería La Fuente Colonial","address":"O'Higgins 480, Quillota, Quillota","source":"GooglePlaces","type":"shopping_mall"}},{"type":"Feature","geometry":{"type":"Point","coordinates":[-71.24547249999999,-32.8793669]},"properties":{"id":"gpoi_ChIJqZ2qrJzNiZYRFfRX46vLPoo","name":"Casa Costa","address":"Maipú 210, Quillota","source":"GooglePlaces","type":"shopping_mall"}},{"type":"Feature","geometry":{"type":"Point","coordinates":[-71.2377028,-32.86486480000001]},"properties":{"id":"gpoi_ChIJM7Ae-grNiZYR5ID0XnXBoRg","name":"Fábrica de Sustancias y Confites Col","address":"Avenida 21 de Mayo 787, Quillota, Quillota","source":"GooglePlaces","type":"shopping_mall"}},{"type":"Feature","geometry":{"type":"Point","coordinates":[-71.2655426,-32.895707]},"properties":{"id":"gpoi_ChIJ15q_4ArSiZYR3U2XkPLziLk","name":"Parque automotriz Quillota","address":"Valparaíso 2010, Quillota, Quillota","source":"GooglePlaces","type":"shopping_mall"}},{"type":"Feature","geometry":{"type":"Point","coordinates":[-71.343251,-33.0513348]},"properties":{"id":"gpoi_ChIJx1r6JLHXiZYRJ3SdLy97Z-M","name":"Apicola center Villa Alemana - Agro-Apicultura","address":"Camino Troncal Parcela 74, Villa Alemana","source":"GooglePlaces","type":"shopping_mall"}},{"type":"Feature","geometry":{"type":"Point","coordinates":[-71.19703849999999,-32.7495]},"properties":{"id":"gpoi_ChIJDSApaM7KiZYRG1_xgfdp2e8","name":"HMS Servicios Industriales Ltda","address":"Pedro Felix Vicuña 802, Nogales, Nogales","source":"GooglePlaces","type":"shopping_mall"}},{"type":"Feature","geometry":{"type":"Point","coordinates":[-70.73473779999999,-33.216773]},"properties":{"id":"gpoi_ChIJ7YZCFse-YpYRNfWJfu_zM20","name":"PANELES SIP","address":"Las Garzas 2, Colina, Colina","source":"GooglePlaces","type":"shopping_mall"}},{"type":"Feature","geometry":{"type":"Point","coordinates":[-70.7831253,-32.7429043]},"properties":{"id":"gpoi_ChIJVS6gaHwWiJYREmdNklRDP00","name":"Agro-Panquehue","address":"Panquehue","source":"GooglePlaces","type":"shopping_mall"}},{"type":"Feature","geometry":{"type":"Point","coordinates":[-71.3767055,-33.0436358]},"properties":{"id":"gpoi_ChIJV3kHf4HXiZYR_3UNQ3NiOlU","name":"ITec Electricidad by Suazo","address":"Santiago 916, Villa Alemana","source":"GooglePlaces","type":"shopping_mall"}},{"type":"Feature","geometry":{"type":"Point","coordinates":[-71.3866819,-33.04501560000001]},"properties":{"id":"gpoi_ChIJB90OCyvYiZYRSLKHf9Rpogw","name":"Audición Chile.","address":"Avenida Valparaíso 1633, local 1, Villa Alemana","source":"GooglePlaces","type":"shopping_mall"}},{"type":"Feature","geometry":{"type":"Point","coordinates":[-71.3887841,-33.0446619]},"properties":{"id":"gpoi_ChIJfSQTcyvYiZYRDyZNvRvRZxY","name":"Distribuidora Sanzana ltda.","address":"Pasaje Carmen 41, Villa Alemana, Villa Alemana","source":"GooglePlaces","type":"shopping_mall"}},{"type":"Feature","geometry":{"type":"Point","coordinates":[-69.91054439999999,-32.825326]},"properties":{"id":"gpoi_ChIJ8--H3wuJh5YR1STkm_RwuLc","name":"Feria de Puente del Inca","address":"Ruta Nacional 7 10, Puente del Inca","source":"GooglePlaces","type":"shopping_mall"}},{"type":"Feature","geometry":{"type":"Point","coordinates":[-69.9101204,-32.8249984]},"properties":{"id":"gpoi_ChIJGWG7oruJh5YRSlJIxtq9x_k","name":"Mercado Artesanal","address":"Puente del Inca","source":"GooglePlaces","type":"shopping_mall"}},{"type":"Feature","geometry":{"type":"Point","coordinates":[-69.8403259,-32.8413748]},"properties":{"id":"gpoi_ChIJXSuX6l59fZYRQeJRr-3BeDs","name":"Los Penitentes Solo Efectivo","address":"Los Penitentes","source":"GooglePlaces","type":"shopping_mall"}},{"type":"Feature","geometry":{"type":"Point","coordinates":[-70.3113011,-33.3520505]},"properties":{"id":"gpoi_ChIJhzc1U84xfZYRLh65Ya-gRHw","name":"Arriendo De Ski Javier Arancibia Local 10 Farellones","address":"Camino de Los Cóndores, Lo Barnechea","source":"GooglePlaces","type":"shopping_mall"}},{"type":"Feature","geometry":{"type":"Point","coordinates":[-68.8246632,-32.9160944]},"properties":{"id":"gpoi_ChIJIZLbJloJfpYRjkmhyFUXmUQ","name":"Alto Dorrego Mall","address":"Moldes 1023, Mendoza","source":"GooglePlaces","type":"shopping_mall"}},{"type":"Feature","geometry":{"type":"Point","coordinates":[-68.8329799,-32.9012085]},"properties":{"id":"gpoi_ChIJVU7f_RoJfpYRz_hEuDGQUzw","name":"Sequimi SRL","address":"G Dorrego Mendoza AR, General Espejo 457, AVL","source":"GooglePlaces","type":"shopping_mall"}},{"type":"Feature","geometry":{"type":"Point","coordinates":[-68.83662079999999,-32.88528770000001]},"properties":{"id":"gpoi_ChIJOftNOh8JfpYRxV5t8lLzVcY","name":"Vía Libre","address":"San Juan 1601, Ciudad","source":"GooglePlaces","type":"shopping_mall"}},{"type":"Feature","geometry":{"type":"Point","coordinates":[-68.8849199,-32.9870189]},"properties":{"id":"gpoi_ChIJGQh8b62OsQER1HZNogvor_I","name":"Paseo Paradiso","address":"Mitre 1426, Luján de Cuyo","source":"GooglePlaces","type":"shopping_mall"}},{"type":"Feature","geometry":{"type":"Point","coordinates":[-68.8868598,-33.03703640000001]},"properties":{"id":"gpoi_ChIJbXmCDEF1fpYRe_kIrjwXNlc","name":"Reino Aventura","address":"Roque Sáenz Peña 536, Luján de Cuyo","source":"GooglePlaces","type":"shopping_mall"}},{"type":"Feature","geometry":{"type":"Point","coordinates":[-68.87803319999999,-32.9830901]},"properties":{"id":"gpoi_ChIJ0w1JUf8KfpYRBNi_fRipsFU","name":"Urban Terrace Mall","address":"Italia 5879 Local 17, Chacras de Coria","source":"GooglePlaces","type":"shopping_mall"}},{"type":"Feature","geometry":{"type":"Point","coordinates":[-68.8594646,-32.95537299999999]},"properties":{"id":"gpoi_ChIJySFyTbMLfpYRUtAd31xn01s","name":"Palmares","address":"Avenida San Martín Sur 2875, Godoy Cruz","source":"GooglePlaces","type":"shopping_mall"}},{"type":"Feature","geometry":{"type":"Point","coordinates":[-68.9102509,-32.88755019999999]},"properties":{"id":"gpoi_ChIJTeDd24PifZYR85KJhsdbJQI","name":"Galeria J.R","address":"Pablo Neruda 2267, Mendoza","source":"GooglePlaces","type":"shopping_mall"}},{"type":"Feature","geometry":{"type":"Point","coordinates":[-68.8403016,-32.938975]},"properties":{"id":"gpoi_ChIJ7e8BdsQLfpYRZWKKsFq2GuE","name":"PASEO STARE","address":"Sarmiento y Cervantes. Puente Olive, Godoy Cruz, Mendoza","source":"GooglePlaces","type":"shopping_mall"}},{"type":"Feature","geometry":{"type":"Point","coordinates":[-68.86479849999999,-32.9041707]},"properties":{"id":"gpoi_ChIJ30NMf3QJfpYRNDkR3Hqp2fo","name":"IMPRO Diseña","address":"Méjico 2166, Godoy Cruz","source":"GooglePlaces","type":"shopping_mall"}},{"type":"Feature","geometry":{"type":"Point","coordinates":[-68.8467623,-32.925401]},"properties":{"id":"gpoi_ChIJxztkqmIJfpYRz9lxkExNdWQ","name":"Patio Lavalle","address":"Lavalle 215, Godoy Cruz","source":"GooglePlaces","type":"shopping_mall"}},{"type":"Feature","geometry":{"type":"Point","coordinates":[-68.839019,-32.9169055]},"properties":{"id":"gpoi_ChIJF8rQ7GYJfpYRMZNyByXO0B8","name":"PORTAL THE ANDES","address":"Balcarce 897, Godoy Cruz","source":"GooglePlaces","type":"shopping_mall"}},{"type":"Feature","geometry":{"type":"Point","coordinates":[-68.8354066,-32.91531]},"properties":{"id":"gpoi_ChIJpfsSimcJfpYRWdjV5nEQB3Q","name":"Claudia Guerrero.Bellisima centro de estética","address":"M5519DAQ, General Espejo 2119, Mendoza","source":"GooglePlaces","type":"shopping_mall"}},{"type":"Feature","geometry":{"type":"Point","coordinates":[-68.8817275,-32.8717147]},"properties":{"id":"gpoi_ChIJKRv7VkcIfpYRpu7_rrSxCyE","name":"Optica Godoy Cruz Lomas","address":"Avenida Champagnat esquina Leloir - Complejo Lomas Plaza Comercial, Local 9, Mendoza","source":"GooglePlaces","type":"shopping_mall"}},{"type":"Feature","geometry":{"type":"Point","coordinates":[-68.80922269999999,-32.94751919999999]},"properties":{"id":"gpoi_ChIJEf82QHYMfpYRKiQp_huWV8E","name":"Estación Torreón","address":"Irigoyen H. 2500 5513, Maipú","source":"GooglePlaces","type":"shopping_mall"}},{"type":"Feature","geometry":{"type":"Point","coordinates":[-69.19607959999999,-32.9625937]},"properties":{"id":"gpoi_ChIJHyt9pyHsfZYRAtgT7Cm6kPU","name":"Parador Aventura Potrerillos cadenas y eq de nieve","address":"Ruta Provincial 89, Potrerillos","source":"GooglePlaces","type":"shopping_mall"}},{"type":"Feature","geometry":{"type":"Point","coordinates":[-68.798587,-32.9848687]},"properties":{"id":"gpoi_ChIJCXy83LwMfpYRPaWP4Ffk1Bg","name":"MI MASCOTA MAIPU","address":"y, J. A. Maza, Palma &, Maipú","source":"GooglePlaces","type":"shopping_mall"}},{"type":"Feature","geometry":{"type":"Point","coordinates":[-68.7978838,-33.0087276]},"properties":{"id":"gpoi_ChIJ75UVDE5zfpYR05lZ-dwmbWE","name":"El Patio Mall","address":"Ozamis Sur 2147, Russell","source":"GooglePlaces","type":"shopping_mall"}},{"type":"Feature","geometry":{"type":"Point","coordinates":[-68.7978238,-33.030416]},"properties":{"id":"gpoi_ChIJc82tSG9zfpYR4BuuNUfAC8c","name":"La Herradura - Barrio Privado","address":"Videla Aranda","source":"GooglePlaces","type":"shopping_mall"}},{"type":"Feature","geometry":{"type":"Point","coordinates":[-68.8216994,-32.9144124]},"properties":{"id":"gpoi_ChIJhZrel1AJfpYRwbHo-i7MY10","name":"La Barraca Mall","address":"Dorrego Mendoza, Las Cañas 1833, DOK","source":"GooglePlaces","type":"shopping_mall"}},{"type":"Feature","geometry":{"type":"Point","coordinates":[-68.4618528,-33.19248779999999]},"properties":{"id":"gpoi_ChIJzfbAPyhcfpYR60eV5tgmnLw","name":"Poly-Plast Packaging Industrial - Commercial","address":"Wenceslao Nuñez 926, Rivadavia","source":"GooglePlaces","type":"shopping_mall"}},{"type":"Feature","geometry":{"type":"Point","coordinates":[-68.1786797,-32.9493146]},"properties":{"id":"gpoi_ChIJWyWsAn9LfpYRMxXKyKeot2Q","name":"Estancia Dos Cabezas","address":"Calle San Isidro, San Martín","source":"GooglePlaces","type":"shopping_mall"}},{"type":"Feature","geometry":{"type":"Point","coordinates":[-68.1094012,-33.25104940000001]},"properties":{"id":"gpoi_ChIJt7-eHUUAf5YRfaNOP0cVpSE","name":"La Salada De Cuyo","address":"Santa Rosa","source":"GooglePlaces","type":"shopping_mall"}},{"type":"Feature","geometry":{"type":"Point","coordinates":[-68.1499869,-33.2521087]},"properties":{"id":"gpoi_ChIJ25tjw93_fpYRUg5sB5GVMb0","name":"Tienda y Regaleria \"Avenida\"","address":"Santa Rosa","source":"GooglePlaces","type":"shopping_mall"}},{"type":"Feature","geometry":{"type":"Point","coordinates":[-68.1500245,-33.25324570000001]},"properties":{"id":"gpoi_ChIJS7trMNz_fpYREcH3SM0IQyA","name":"JAQ SISTEMAS","address":"General Roca 190, Santa Rosa","source":"GooglePlaces","type":"shopping_mall"}},{"type":"Feature","geometry":{"type":"Point","coordinates":[-68.0450901,-33.2995221]},"properties":{"id":"gpoi_ChIJQ1Jg2AAEf5YRCVjxcHgpqDU","name":"LUBRICENTRO V&B","address":"Las Catitas","source":"GooglePlaces","type":"shopping_mall"}},{"type":"Feature","geometry":{"type":"Point","coordinates":[-68.3863327,-33.0109271]},"properties":{"id":"gpoi_ChIJwbUHR71HfpYRhdyBstP6DCY","name":"Souvenirs Y Artesanias Gaby","address":"Montecaseros, Mendoza","source":"GooglePlaces","type":"shopping_mall"}},{"type":"Feature","geometry":{"type":"Point","coordinates":[-68.3960937,-33.0188677]},"properties":{"id":"gpoi_ChIJ9___XCZEfpYRy0dtZow2tuo","name":"Lubricentro Don Blas","address":"San Martín","source":"GooglePlaces","type":"shopping_mall"}},{"type":"Feature","geometry":{"type":"Point","coordinates":[-68.3772463,-33.1129669]},"properties":{"id":"gpoi_ChIJL_QwC9lafpYRwM5f3-E_u0U","name":"Casa \"BRITOS\"","address":"San Martín","source":"GooglePlaces","type":"shopping_mall"}},{"type":"Feature","geometry":{"type":"Point","coordinates":[-68.3877656,-32.9032342]},"properties":{"id":"gpoi_ChIJ1ZBM-PM4fpYRYX_ya4HUTxw","name":"Convención De Vendedores","address":"San Martín","source":"GooglePlaces","type":"shopping_mall"}},{"type":"Feature","geometry":{"type":"Point","coordinates":[-68.3878082,-32.9023644]},"properties":{"id":"gpoi_ChIJlyp6VPE4fpYROXZbYPP6UOM","name":"Autoservicio Don Pato Mamani 2","address":"San Martín","source":"GooglePlaces","type":"shopping_mall"}},{"type":"Feature","geometry":{"type":"Point","coordinates":[-67.9185021,-33.3374401]},"properties":{"id":"gpoi_ChIJeweE4pEPf5YRSx5pu9vu3bg","name":"Pruductos Regionales","address":"Ruta Nacional 7","source":"GooglePlaces","type":"shopping_mall"}},{"type":"Feature","geometry":{"type":"Point","coordinates":[-67.91651519999999,-33.3484358]},"properties":{"id":"gpoi_ChIJdTSw4x0Pf5YR3-tyFr0MBCQ","name":"Almacen De Colores","address":"Saavedra 25, La Dormida","source":"GooglePlaces","type":"shopping_mall"}},{"type":"Feature","geometry":{"type":"Point","coordinates":[-67.890682,-33.3473788]},"properties":{"id":"gpoi_ChIJx5UIkioPf5YRNw0AwDNxTZo","name":"regionales mendoza","address":"La Dormida","source":"GooglePlaces","type":"shopping_mall"}},{"type":"Feature","geometry":{"type":"Point","coordinates":[-68.40770979999999,-33.1255367]},"properties":{"id":"gpoi_ChIJsfEZMUBbfpYRB231UFLGoAQ","name":"Multicentro Guerrero","address":"Santos Lugares 50, Ingeniero Giagnoni","source":"GooglePlaces","type":"shopping_mall"}},{"type":"Feature","geometry":{"type":"Point","coordinates":[-68.3468486,-32.7758907]},"properties":{"id":"gpoi_ChIJiYOJSAA7fpYRV-Rhn_nZ18U","name":"Mercado Don Ramon","address":"6MF3+JF, Nueva California","source":"GooglePlaces","type":"shopping_mall"}},{"type":"Feature","geometry":{"type":"Point","coordinates":[-68.4118453,-33.1280245]},"properties":{"id":"gpoi_ChIJnwWi_GZbfpYRxrbdX2OpXoQ","name":"ESCUDERO POLARIZADO","address":"Batalla de Caseros 64, Junín","source":"GooglePlaces","type":"shopping_mall"}},{"type":"Feature","geometry":{"type":"Point","coordinates":[-68.4301905,-33.0797713]},"properties":{"id":"gpoi_ChIJvVwt1RBDfpYR3syQ6tvrdZg","name":"REGIONALES BETO","address":"Ruta 7 km 998 Buen Orden Sobre, Lateral Sur, San Martín","source":"GooglePlaces","type":"shopping_mall"}},{"type":"Feature","geometry":{"type":"Point","coordinates":[-68.4393998,-33.06747289999999]},"properties":{"id":"gpoi_ChIJ0RR5noJDfpYRiRcgG0xn2Zc","name":"Camping de La Policía","address":"Carril Norte, Mendoza","source":"GooglePlaces","type":"shopping_mall"}},{"type":"Feature","geometry":{"type":"Point","coordinates":[-68.44217569999999,-33.0926994]},"properties":{"id":"gpoi_ChIJacOntuVDfpYRWqqsNk_vmUc","name":"Cintia Berardo peluquería y estética","address":"Ruta Provincial 50, San Martín","source":"GooglePlaces","type":"shopping_mall"}},{"type":"Feature","geometry":{"type":"Point","coordinates":[-66.5263709,-33.1415137]},"properties":{"id":"gpoi_ChIJb8ztI7NN1JUR83DMm8jvRbI","name":"Frigorífico Cardinali","address":"San Gerónimo","source":"GooglePlaces","type":"shopping_mall"}},{"type":"Feature","geometry":{"type":"Point","coordinates":[-66.52218739999999,-33.1383936]},"properties":{"id":"gpoi_ChIJB6EFyKZP1JUR5Tap7jUWIE8","name":"Autoservicio LA CASONA","address":"San Gerónimo","source":"GooglePlaces","type":"shopping_mall"}},{"type":"Feature","geometry":{"type":"Point","coordinates":[-65.6189985,-33.0562391]},"properties":{"id":"gpoi_ChIJ4W04eN-S05URuUCLbHWJ2gI","name":"Marmoleria El Indio","address":"Onix, Avenida Mármol 263, La Toma","source":"GooglePlaces","type":"shopping_mall"}},{"type":"Feature","geometry":{"type":"Point","coordinates":[-66.34206809999999,-33.1911771]},"properties":{"id":"gpoi_ChIJK2_1PDBH1JURVZCKhRNdk8o","name":"Punta Store","address":"La Punta","source":"GooglePlaces","type":"shopping_mall"}},{"type":"Feature","geometry":{"type":"Point","coordinates":[-66.2585204,-33.2892009]},"properties":{"id":"gpoi_ChIJLSMDiAo-1JURFVHbL2oWKv4","name":"La Joaquina Open Mall","address":"Esquina Fátima, Avenida del Viento Chorrillero 1.653, Juana Koslay","source":"GooglePlaces","type":"shopping_mall"}},{"type":"Feature","geometry":{"type":"Point","coordinates":[-66.3036592,-33.2921354]},"properties":{"id":"gpoi_ChIJZYKscpk-1JURyFXHFwP-bOs","name":"cerrajeria 24","address":"MY PALAVER 1325 0266-444-6369, San Luis","source":"GooglePlaces","type":"shopping_mall"}},{"type":"Feature","geometry":{"type":"Point","coordinates":[-66.3290691,-33.2926818]},"properties":{"id":"gpoi_ChIJLUQDYLI-1JUR9f8_p1i_6y0","name":"Aberturas Vidrios y Aluminios puntanos","address":"Avenida Ponte Juan Domingo Perón 1395, San Luis","source":"GooglePlaces","type":"shopping_mall"}},{"type":"Feature","geometry":{"type":"Point","coordinates":[-66.33812220000002,-33.2929256]},"properties":{"id":"gpoi_ChIJ_bW4f0451JURkD7yKzfKkDU","name":"Baldosones San Luis","address":"Chile 1420, San Luis","source":"GooglePlaces","type":"shopping_mall"}},{"type":"Feature","geometry":{"type":"Point","coordinates":[-66.06490889999999,-33.10077020000001]},"properties":{"id":"gpoi_ChIJa5t4Zett1JURLRhAPiLL0Bo","name":"Carritos Rayito","address":"Avenida Belgrano, Trapiche","source":"GooglePlaces","type":"shopping_mall"}},{"type":"Feature","geometry":{"type":"Point","coordinates":[-66.0633108,-33.1062202]},"properties":{"id":"gpoi_ChIJkfLobwBt1JURFKF6uMMB1gM","name":"Plaza","address":"Trapiche","source":"GooglePlaces","type":"shopping_mall"}},{"type":"Feature","geometry":{"type":"Point","coordinates":[-66.0618793,-33.1080394]},"properties":{"id":"gpoi_ChIJWdSlZwBt1JURbqLpQT2c8ao","name":"Paseo De Compras queca","address":"Trapiche","source":"GooglePlaces","type":"shopping_mall"}},{"type":"Feature","geometry":{"type":"Point","coordinates":[-66.0124546,-33.1269869]},"properties":{"id":"gpoi_ChIJGVDbVABz1JURWAdISvEF9BQ","name":"Lajas naturales \"Jeremy\"","address":"VXFQ+62, La Florida","source":"GooglePlaces","type":"shopping_mall"}},{"type":"Feature","geometry":{"type":"Point","coordinates":[-66.0613719,-33.1221482]},"properties":{"id":"gpoi_ChIJNxhNkAVt1JURkRjIZxWZKl4","name":"Fiambrería y Algo Más","address":"Ruta Provincial 9 km 37/5, Trapiche","source":"GooglePlaces","type":"shopping_mall"}},{"type":"Feature","geometry":{"type":"Point","coordinates":[-66.15350049999999,-33.188374]},"properties":{"id":"gpoi_ChIJC0EUCrIU1JUREb-aStaZyDA","name":"El Durazno","address":"San Luis","source":"GooglePlaces","type":"shopping_mall"}},{"type":"Feature","geometry":{"type":"Point","coordinates":[-65.8539771,-33.2007582]},"properties":{"id":"gpoi_ChIJzfrbYwD105URExSXdhykxdQ","name":"Balanceados Max","address":"Martín Fierro, Saladillo","source":"GooglePlaces","type":"shopping_mall"}},{"type":"Feature","geometry":{"type":"Point","coordinates":[-66.160313,-33.1935713]},"properties":{"id":"gpoi_ChIJO5QMDK0V1JURtWX41W9ti3g","name":"Paseo Serrano • Centro comercial artesanos y gastronómico","address":"Unnamed Road, Estancia Grande, San Luis","source":"GooglePlaces","type":"shopping_mall"}},{"type":"Feature","geometry":{"type":"Point","coordinates":[-66.28952989999999,-33.0163368]},"properties":{"id":"gpoi_ChIJL3yrHgBd1JURrt1ep0mrybI","name":"CaSu Bazar","address":"Sarmiento 28, Villa de la Quebrada","source":"GooglePlaces","type":"shopping_mall"}},{"type":"Feature","geometry":{"type":"Point","coordinates":[-66.2886661,-33.087457]},"properties":{"id":"gpoi_ChIJH-7xQUBD1JURCsXjActBlf8","name":"Artesanias&Regionales","address":"Ruta Provincial 3, San Luis","source":"GooglePlaces","type":"shopping_mall"}},{"type":"Feature","geometry":{"type":"Point","coordinates":[-66.3238365,-32.94423449999999]},"properties":{"id":"gpoi_ChIJwYS_yrde1JURbBSLKqmJJWE","name":"Balcones de Nogoli","address":"At. 25 de Mayo, Km. 39, Nogolí","source":"GooglePlaces","type":"shopping_mall"}},{"type":"Feature","geometry":{"type":"Point","coordinates":[-65.6666176,-33.03548500000001]},"properties":{"id":"gpoi_ChIJb3ULaIeN05UR2jFaVjO5OIk","name":"Embalse Río del Rosario La Toma","address":"Unnamed Road, San Luis","source":"GooglePlaces","type":"shopping_mall"}},{"type":"Feature","geometry":{"type":"Point","coordinates":[-66.3269751,-32.9209437]},"properties":{"id":"gpoi_ChIJC9D1dQ1f1JURCTwBnqoZpAU","name":"KIOSCO EL CHAMIGO","address":"3MHF+J6, Nogolí","source":"GooglePlaces","type":"shopping_mall"}},{"type":"Feature","geometry":{"type":"Point","coordinates":[-66.22994659999999,-33.2117884]},"properties":{"id":"gpoi_ChIJ4yG3PFoV1JUR5F6tY_ytKis","name":"El Puentecito Regaleria","address":"San Luis","source":"GooglePlaces","type":"shopping_mall"}},{"type":"Feature","geometry":{"type":"Point","coordinates":[-65.083685,-33.14401829999999]},"properties":{"id":"gpoi_ChIJAQTtjE8t0pURyMOUZts3E-8","name":"La Punilla","address":"Ruta Provincial 10, La Punilla","source":"GooglePlaces","type":"shopping_mall"}},{"type":"Feature","geometry":{"type":"Point","coordinates":[-65.0836814,-33.1445797]},"properties":{"id":"gpoi_ChIJq91bVAAt0pUR9NEUEZDuLuc","name":"Bienvenida - La Punilla","address":"Ruta Provincial 30, Córdoba","source":"GooglePlaces","type":"shopping_mall"}},{"type":"Feature","geometry":{"type":"Point","coordinates":[-64.9933441,-33.1733552]},"properties":{"id":"gpoi_ChIJ6XK0L_Qv0pURiJyQPGNrqgE","name":"Paseo peatonal Achiras","address":"24 de Septiembre 458, Achiras","source":"GooglePlaces","type":"shopping_mall"}},{"type":"Feature","geometry":{"type":"Point","coordinates":[-64.99342500000002,-33.1735973]},"properties":{"id":"gpoi_ChIJeQ8J6pgu0pURWuXDSRWs7p0","name":"Los Girasoles","address":"24 de Septiembre, Córdoba","source":"GooglePlaces","type":"shopping_mall"}},{"type":"Feature","geometry":{"type":"Point","coordinates":[-64.98733039999999,-32.6827861]},"properties":{"id":"gpoi_ChIJiejvNwBX0pURYDKeK66tN60","name":"Regional comechingones","address":"Ruta 1 km 40, Papagayos","source":"GooglePlaces","type":"shopping_mall"}},{"type":"Feature","geometry":{"type":"Point","coordinates":[-65.3726248,-32.9151327]},"properties":{"id":"gpoi_ChIJgcsSlXm705UREYIIvK2iAnk","name":"FM Jilguero92.1 La Radio Del Monstruo","address":"9 de Julio 505, Naschel","source":"GooglePlaces","type":"shopping_mall"}},{"type":"Feature","geometry":{"type":"Point","coordinates":[-64.9818217,-32.64125279999999]},"properties":{"id":"gpoi_ChIJHWRHokpX0pUR-sMfUm7R-8U","name":"Loteo suelos puntanos ll","address":"San Luis","source":"GooglePlaces","type":"shopping_mall"}},{"type":"Feature","geometry":{"type":"Point","coordinates":[-65.2919455,-32.7341067]},"properties":{"id":"gpoi_ChIJs-cOQcCp05URaptr1Nv3jCE","name":"REFRIPOLAR refrigeracion","address":"Tilisarao","source":"GooglePlaces","type":"shopping_mall"}},{"type":"Feature","geometry":{"type":"Point","coordinates":[-65.2929473,-32.7348353]},"properties":{"id":"gpoi_ChIJBQAEZJ-o05URK4r6jQ6s9Vc","name":"Roxana Andre - Centro de Estética Integral","address":"Renca 247, Tilisarao","source":"GooglePlaces","type":"shopping_mall"}},{"type":"Feature","geometry":{"type":"Point","coordinates":[-65.2947568,-32.7326893]},"properties":{"id":"gpoi_ChIJeTLsYhim05URwmhxc1vS5Ho","name":"Di Que Si deco & regalos","address":"D5773BCA Moreno 1-99, Tilisarao","source":"GooglePlaces","type":"shopping_mall"}},{"type":"Feature","geometry":{"type":"Point","coordinates":[-64.97953389999999,-32.6334505]},"properties":{"id":"gpoi_ChIJKfNTOQBX0pURaRo-U_Cyk48","name":"Almacen de Marcela","address":"Calle Malvinas Argentinas, Villa Larca","source":"GooglePlaces","type":"shopping_mall"}},{"type":"Feature","geometry":{"type":"Point","coordinates":[-65.2975938,-32.72970809999999]},"properties":{"id":"gpoi_ChIJ-a57AgCn05URX4QnBhKERls","name":"Polleria lo de walter","address":"Doctora Mazzuco 255, Tilisarao","source":"GooglePlaces","type":"shopping_mall"}},{"type":"Feature","geometry":{"type":"Point","coordinates":[-64.982192,-32.620163]},"properties":{"id":"gpoi_ChIJJeYwrhZW0pURszMvpyE4_BI","name":"Artesanias \"La Nona\"","address":"Ruta Nr1 Km 32, Villa Larca","source":"GooglePlaces","type":"shopping_mall"}},{"type":"Feature","geometry":{"type":"Point","coordinates":[-64.7210903,-32.6935123]},"properties":{"id":"gpoi_ChIJsbGquGBd0pURGv31KCNREeA","name":"Autoservicio La Huerta","address":"Alpa Corral","source":"GooglePlaces","type":"shopping_mall"}},{"type":"Feature","geometry":{"type":"Point","coordinates":[-64.7202629,-32.69289969999999]},"properties":{"id":"gpoi_ChIJhzhK72Bd0pURQ5dtetikf8o","name":"La Ñusta Regionales","address":"Alpa Corral","source":"GooglePlaces","type":"shopping_mall"}},{"type":"Feature","geometry":{"type":"Point","coordinates":[-64.7195191,-32.6919507]},"properties":{"id":"gpoi_ChIJYwwd_mBd0pURZYPmnZG5cFc","name":"Talabartería Don Pepe","address":"Avenida Carlos D Glymes, Alpa Corral","source":"GooglePlaces","type":"shopping_mall"}},{"type":"Feature","geometry":{"type":"Point","coordinates":[-64.743064,-32.6642023]},"properties":{"id":"gpoi_ChIJ6z1TSrxd0pURdknyG5zUxjo","name":"LO DE SOSA","address":"Alpa Corral","source":"GooglePlaces","type":"shopping_mall"}},{"type":"Feature","geometry":{"type":"Point","coordinates":[-64.3409265,-33.10991660000001]},"properties":{"id":"gpoi_ChIJHUILG3cA0pURTGPYW79igVo","name":"Descartables Norte (Repostería y Cotillón)","address":"Avenida Marcelo T. de Alvear 370, Río Cuarto","source":"GooglePlaces","type":"shopping_mall"}},{"type":"Feature","geometry":{"type":"Point","coordinates":[-64.32429619999999,-33.09117139999999]},"properties":{"id":"gpoi_ChIJ70s5mnf_zZURwBcQUonqUr4","name":"CEMENTOS ACEROS LADRILLO SA","address":"Río Cuarto","source":"GooglePlaces","type":"shopping_mall"}},{"type":"Feature","geometry":{"type":"Point","coordinates":[-64.33424889999999,-33.1033763]},"properties":{"id":"gpoi_ChIJ_81okwoA0pURUzgtlHHG6Sk","name":"serrosaudio","address":"Avenida Marcelo T. de Alvear 1000, Río Cuarto","source":"GooglePlaces","type":"shopping_mall"}},{"type":"Feature","geometry":{"type":"Point","coordinates":[-64.3471136,-33.1175847]},"properties":{"id":"gpoi_ChIJq_v93XIA0pURgphsEZTaX1g","name":"Ribera Paseo Shopping","address":"X5800AAA, Sobremonte 80, Río Cuarto","source":"GooglePlaces","type":"shopping_mall"}},{"type":"Feature","geometry":{"type":"Point","coordinates":[-64.345533,-33.1250507]},"properties":{"id":"gpoi_ChIJq-kp3g0A0pURb527z7Yx7F8","name":"Folk Atuendo Urbano","address":"General Paz 783 Local 05, Río Cuarto","source":"GooglePlaces","type":"shopping_mall"}},{"type":"Feature","geometry":{"type":"Point","coordinates":[-64.35279899999999,-33.1157489]},"properties":{"id":"gpoi_ChIJT-j3SWwA0pURw-A08tU4wY8","name":"Cardinales Rio Cuarto (GNI)","address":"X5806FKI, Avenida Guillermo Marconi 615, Río Cuarto","source":"GooglePlaces","type":"shopping_mall"}},{"type":"Feature","geometry":{"type":"Point","coordinates":[-64.34776289999999,-33.1355998]},"properties":{"id":"gpoi_ChIJ9x7xWwMA0pURE1izeYjwVlk","name":"Pelotero Entre Amigos","address":"Lamadrid 1857, Río Cuarto","source":"GooglePlaces","type":"shopping_mall"}},{"type":"Feature","geometry":{"type":"Point","coordinates":[-64.3585382,-33.1214074]},"properties":{"id":"gpoi_ChIJWUvL0RIA0pURZUBz456br-E","name":"Embarazo en Movimiento","address":"Maipú 732, Río Cuarto","source":"GooglePlaces","type":"shopping_mall"}},{"type":"Feature","geometry":{"type":"Point","coordinates":[-63.7028578,-32.7001097]},"properties":{"id":"gpoi_ChIJod_QHqHJzZUR3a3C_0F5tKU","name":"OPTICA SANTA RITA","address":"486, Calle Las Perdices","source":"GooglePlaces","type":"shopping_mall"}},{"type":"Feature","geometry":{"type":"Point","coordinates":[-63.50561759999999,-33.0285389]},"properties":{"id":"gpoi_ChIJWZWBF0mBzpUR6D525tIpp20","name":"Centro Comercial e Industrial de UCACHA","address":"Ucacha","source":"GooglePlaces","type":"shopping_mall"}},{"type":"Feature","geometry":{"type":"Point","coordinates":[-63.50335029999999,-33.0333208]},"properties":{"id":"gpoi_ChIJ8ykAm0yBzpUR53Q6FQJjKo0","name":"Hiper Regalos","address":"Bv Modesto Giuliani 247, Ucacha","source":"GooglePlaces","type":"shopping_mall"}},{"type":"Feature","geometry":{"type":"Point","coordinates":[-64.0275822,-32.9142787]},"properties":{"id":"gpoi_ChIJS9IGx5vnzZURWjv3Xuy-uB8","name":"SiAGRO suc. Carnerillo","address":"Avenida San Martin y, Carnerillo","source":"GooglePlaces","type":"shopping_mall"}},{"type":"Feature","geometry":{"type":"Point","coordinates":[-63.9075059,-33.0444394]},"properties":{"id":"gpoi_ChIJ0XM6uXh1zpUR4upBvziUE3A","name":"Kiosco Rubiolo","address":"Olaeta 104, Olaeta","source":"GooglePlaces","type":"shopping_mall"}},{"type":"Feature","geometry":{"type":"Point","coordinates":[-63.88187,-32.8155487]},"properties":{"id":"gpoi_ChIJP3U9S5fDzZUREBhJJGsMrjI","name":"Moto Sur General Cabrera","address":"222 Ruta Nacional 158, General Cabrera","source":"GooglePlaces","type":"shopping_mall"}},{"type":"Feature","geometry":{"type":"Point","coordinates":[-63.8750003,-32.8131906]},"properties":{"id":"gpoi_ChIJ9w1waP3DzZURcYbGJeJyOCI","name":"Galería Paseo del Sol","address":"Avenida Buenos Aires, General Cabrera","source":"GooglePlaces","type":"shopping_mall"}},{"type":"Feature","geometry":{"type":"Point","coordinates":[-63.87323480000001,-32.8117532]},"properties":{"id":"gpoi_ChIJZ5bTpITDzZURDZENJZulJ4o","name":"FeriaUPDT","address":"Bernardino Rivadavia, General Cabrera","source":"GooglePlaces","type":"shopping_mall"}},{"type":"Feature","geometry":{"type":"Point","coordinates":[-63.8771797,-32.80929649999999]},"properties":{"id":"gpoi_ChIJq6raFZLDzZURF74ShVEzy4I","name":"Dolfi Polirubro","address":"Córdoba, General Cabrera","source":"GooglePlaces","type":"shopping_mall"}},{"type":"Feature","geometry":{"type":"Point","coordinates":[-63.86541159999999,-32.8092898]},"properties":{"id":"gpoi_ChIJP7oszInDzZURzQFtrzPt56c","name":"Barber Andrea Chavez","address":"Sarmiento 1113, General Cabrera","source":"GooglePlaces","type":"shopping_mall"}},{"type":"Feature","geometry":{"type":"Point","coordinates":[-64.2862435,-33.091818]},"properties":{"id":"gpoi_ChIJ-_sLpVP-zZURowTybYUMqvE","name":"EL-SI Zapatillas","address":"Antártida Argentina, Río Cuarto","source":"GooglePlaces","type":"shopping_mall"}},{"type":"Feature","geometry":{"type":"Point","coordinates":[-63.33823289999999,-32.7517995]},"properties":{"id":"gpoi_ChIJaerOU9EkzJUR4KPa0zSnFM0","name":"Manisel SA","address":"Ruta Provincial 6 Km 114, Pasco","source":"GooglePlaces","type":"shopping_mall"}},{"type":"Feature","geometry":{"type":"Point","coordinates":[-62.6087508,-33.2007267]},"properties":{"id":"gpoi_ChIJry9JzFg6yZUR63bY1tCPOhc","name":"Carpinteria La Artistica","address":"Río Negro 1730, Monte Maiz","source":"GooglePlaces","type":"shopping_mall"}},{"type":"Feature","geometry":{"type":"Point","coordinates":[-63.0401687,-33.1239061]},"properties":{"id":"gpoi_ChIJ-de6hHC5zpURa_4vf6R2JLE","name":"Gisas Pascanas","address":"Italia 29, Pascanas","source":"GooglePlaces","type":"shopping_mall"}},{"type":"Feature","geometry":{"type":"Point","coordinates":[-62.86765459999999,-32.8446734]},"properties":{"id":"gpoi_ChIJnQuCeP6qzpUR6kwiJm9z4Hw","name":"CUQUIN S.R.L.","address":"Ordóñez","source":"GooglePlaces","type":"shopping_mall"}},{"type":"Feature","geometry":{"type":"Point","coordinates":[-62.8635475,-32.8457981]},"properties":{"id":"gpoi_ChIJBezvYf2qzpURMJ_dNMng9H0","name":"Ortega Hnos","address":"Ordóñez","source":"GooglePlaces","type":"shopping_mall"}},{"type":"Feature","geometry":{"type":"Point","coordinates":[-62.85080529999999,-33.1509911]},"properties":{"id":"gpoi_ChIJEy45NpTKzpURyep-ASyOSr8","name":"AGP Computacion","address":"Bolívar 40, Laborde","source":"GooglePlaces","type":"shopping_mall"}},{"type":"Feature","geometry":{"type":"Point","coordinates":[-62.8552715,-33.1548661]},"properties":{"id":"gpoi_ChIJxfQUXJLKzpURW6Cdu7PX9h0","name":"Contá Conmigo Regalos","address":"Sarmiento, Belgrano y, Laborde","source":"GooglePlaces","type":"shopping_mall"}},{"type":"Feature","geometry":{"type":"Point","coordinates":[-62.8591912,-32.8410825]},"properties":{"id":"gpoi_ChIJndb4C-OqzpURYVRlCkn_kN4","name":"Lavandería Burbujitas","address":"313, 9, Ordoñez","source":"GooglePlaces","type":"shopping_mall"}},{"type":"Feature","geometry":{"type":"Point","coordinates":[-63.2428818,-32.9370563]},"properties":{"id":"gpoi_ChIJoaxvGwSfzpUReMnQkyAj4Cs","name":"El Kioskito De Nikito","address":"Juan Boschetti, Etruria","source":"GooglePlaces","type":"shopping_mall"}},{"type":"Feature","geometry":{"type":"Point","coordinates":[-63.2498589,-32.9401236]},"properties":{"id":"gpoi_ChIJT9zn5PufzpUR3yL_0gR9RLM","name":"M&A cotillón","address":"Etruria","source":"GooglePlaces","type":"shopping_mall"}},{"type":"Feature","geometry":{"type":"Point","coordinates":[-62.77001929999999,-33.17133019999999]},"properties":{"id":"gpoi_ChIJV1mxdls0yZURowineHzi9aI","name":"Maxi Kiosco NinaFan","address":"Presidente Peron, Wenceslao Escalante","source":"GooglePlaces","type":"shopping_mall"}},{"type":"Feature","geometry":{"type":"Point","coordinates":[-63.24741739999999,-32.8009434]},"properties":{"id":"gpoi_ChIJ13E5-HEjzJURRo59OugK1g4","name":"Sum Municipal","address":"Santa Fe, La Laguna","source":"GooglePlaces","type":"shopping_mall"}},{"type":"Feature","geometry":{"type":"Point","coordinates":[-62.6883125,-32.8761835]},"properties":{"id":"gpoi_ChIJzbd-GB1RyZURyYLoNsBUULM","name":"Balines Apolo","address":"Justiniano Posse","source":"GooglePlaces","type":"shopping_mall"}},{"type":"Feature","geometry":{"type":"Point","coordinates":[-62.6785222,-32.8906837]},"properties":{"id":"gpoi_ChIJyXoPAZpRyZURDmMgAaI1Ng0","name":"Lonera Don Néstor","address":"Córdova","source":"GooglePlaces","type":"shopping_mall"}},{"type":"Feature","geometry":{"type":"Point","coordinates":[-62.67592539999999,-32.88920489999999]},"properties":{"id":"gpoi_ChIJ6T7oeQBRyZURs2461UqS-GI","name":"Julieta Descartables","address":"Los Paraisos 534, Justiniano Posse","source":"GooglePlaces","type":"shopping_mall"}},{"type":"Feature","geometry":{"type":"Point","coordinates":[-62.6782752,-32.8814426]},"properties":{"id":"gpoi_ChIJVRx7Q_lQyZURmFfi4rplWoY","name":"Mutual TOJU","address":"Avenida de Mayo 100-198, Justiniano Posse","source":"GooglePlaces","type":"shopping_mall"}},{"type":"Feature","geometry":{"type":"Point","coordinates":[-63.281658,-33.1781089]},"properties":{"id":"gpoi_ChIJaY-qmDOVzpURy3-g4MpKrX0","name":".......","address":"Ruta Provincial 4, Santa Eufemia","source":"GooglePlaces","type":"shopping_mall"}},{"type":"Feature","geometry":{"type":"Point","coordinates":[-62.09358,-33.1215088]},"properties":{"id":"gpoi_ChIJwQEd7eEHyZURqoWnwMbkSr0","name":"Transporte Girotti SRL - Acoplados y Carrocerias Girotti","address":"Ruta Provincial 12 1000, Camilo Aldao","source":"GooglePlaces","type":"shopping_mall"}},{"type":"Feature","geometry":{"type":"Point","coordinates":[-61.817266,-33.01562070000001]},"properties":{"id":"gpoi_ChIJJbP-l8y7yZURcNLDS3SSjDQ","name":"Jose A Anzoategui SRL","address":"Boedo 1438, Cruz Alta","source":"GooglePlaces","type":"shopping_mall"}},{"type":"Feature","geometry":{"type":"Point","coordinates":[-61.7004506,-33.1127463]},"properties":{"id":"gpoi_ChIJzfExVgfKyZURQdfppeTLtG8","name":"MARTINEZ TRAVEL GROUP","address":"Alberdi 507, San Jose de la Esquina","source":"GooglePlaces","type":"shopping_mall"}},{"type":"Feature","geometry":{"type":"Point","coordinates":[-62.0328384,-33.323475]},"properties":{"id":"gpoi_ChIJPQSjDbJVyJURpmFbJJEsCcg","name":"On Medios","address":"33°19'24. 62°01'58.3\"W, Argentina 7, Ramos Mejía","source":"GooglePlaces","type":"shopping_mall"}},{"type":"Feature","geometry":{"type":"Point","coordinates":[-62.1098534,-32.6866691]},"properties":{"id":"gpoi_ChIJoZsO6xd_yZURlHOKE1BDilk","name":"NATALI PLASTICOS S.R.L. (Mayorista sanitarios)","address":"X2580ALI 1475, ALI, Avenida Alvear, Marcos Juárez","source":"GooglePlaces","type":"shopping_mall"}},{"type":"Feature","geometry":{"type":"Point","coordinates":[-62.4475022,-32.9296862]},"properties":{"id":"gpoi_ChIJMd5i2H1CyZURXjDdCOKZw8w","name":"ROLLER Semilleria S.R.L.","address":"Monte Buey","source":"GooglePlaces","type":"shopping_mall"}},{"type":"Feature","geometry":{"type":"Point","coordinates":[-61.60364199999999,-32.782991]},"properties":{"id":"gpoi_ChIJT6JxanvpyZURVCKAv3iFD2s","name":"Centro Comercial, Industrial y Rural de Armstrong","address":"Bulevar Roldán 1627 - Local \"2, Armstrong","source":"GooglePlaces","type":"shopping_mall"}},{"type":"Feature","geometry":{"type":"Point","coordinates":[-62.4087111,-33.2373376]},"properties":{"id":"gpoi_ChIJE0Ao-lUYyZURuzAX6U2QCqU","name":"Motos fito","address":"Isla Verde","source":"GooglePlaces","type":"shopping_mall"}},{"type":"Feature","geometry":{"type":"Point","coordinates":[-61.7108201,-33.3783401]},"properties":{"id":"gpoi_ChIJz9O2So1HyJURGC4cRxCy9_w","name":"Los 3 Pibes","address":"9 de Julio, Los Quirquinchos","source":"GooglePlaces","type":"shopping_mall"}},{"type":"Feature","geometry":{"type":"Point","coordinates":[-62.00456979999999,-32.9885949]},"properties":{"id":"gpoi_ChIJf1-pjEehyZURp5Eu5saMjpY","name":"Parque Industrial Los Surgentes","address":"Unnamed Road","source":"GooglePlaces","type":"shopping_mall"}},{"type":"Feature","geometry":{"type":"Point","coordinates":[-62.0204386,-32.98405500000001]},"properties":{"id":"gpoi_ChIJTTBa7NehyZURXezJam18Hcc","name":"Conti Gustavo Javier - Grupo Asegurador \"La Segunda\" - Gestoría del Automotor -","address":"Gobernador Jose Manuel de la Sota 474, Los Surgentes","source":"GooglePlaces","type":"shopping_mall"}},{"type":"Feature","geometry":{"type":"Point","coordinates":[-62.0232773,-32.984628]},"properties":{"id":"gpoi_ChIJw0Q42iehyZUR3vOvbSwfV1w","name":"Optica visiolens","address":"San Martin, Los Surgentes","source":"GooglePlaces","type":"shopping_mall"}},{"type":"Feature","geometry":{"type":"Point","coordinates":[-62.0932798,-33.1208789]},"properties":{"id":"gpoi_ChIJe3ub-uEHyZUR3mO31T1lfsI","name":"Etta srl","address":"bv jose maria aldao 250, Camilo Aldao","source":"GooglePlaces","type":"shopping_mall"}},{"type":"Feature","geometry":{"type":"Point","coordinates":[-62.0943658,-33.1254551]},"properties":{"id":"gpoi_ChIJheI3NOEHyZURP51YUIi2cy4","name":"Norberto Depetris Saloon Unisex","address":"9 de Julio, Camilo Aldao","source":"GooglePlaces","type":"shopping_mall"}},{"type":"Feature","geometry":{"type":"Point","coordinates":[-62.0921935,-33.127547]},"properties":{"id":"gpoi_ChIJe0NAleMHyZURFWBxTiAMNxs","name":"Detailing estética vehicular","address":"Sargento Cabral 495, Camilo Aldao","source":"GooglePlaces","type":"shopping_mall"}},{"type":"Feature","geometry":{"type":"Point","coordinates":[-62.0989866,-33.1255265]},"properties":{"id":"gpoi_ChIJMfF5It4HyZURAyeKzkLFn4s","name":"Sunce","address":"Aristóbulo del Valle 1278, Camilo Aldao","source":"GooglePlaces","type":"shopping_mall"}},{"type":"Feature","geometry":{"type":"Point","coordinates":[-61.8168435,-33.0050014]},"properties":{"id":"gpoi_ChIJ4Qj5F7-7yZURqwuIJlabsoU","name":"Luis Alberto Hugo Bartulovich","address":"Cruz Alta","source":"GooglePlaces","type":"shopping_mall"}},{"type":"Feature","geometry":{"type":"Point","coordinates":[-62.0917361,-33.133577]},"properties":{"id":"gpoi_ChIJ94Q8xe4HyZURt0JpQT2xMLs","name":"KIOSCO ALE","address":"Camilo Aldao","source":"GooglePlaces","type":"shopping_mall"}},{"type":"Feature","geometry":{"type":"Point","coordinates":[-62.09815099999999,-33.13108860000001]},"properties":{"id":"gpoi_ChIJH_CY8OcHyZURzkKVDlYpgVU","name":"Taller Dari","address":"Córdoba 1090, Camilo Aldao","source":"GooglePlaces","type":"shopping_mall"}},{"type":"Feature","geometry":{"type":"Point","coordinates":[-61.8137283,-33.0065056]},"properties":{"id":"gpoi_ChIJUcLTxcu7yZURS6Mv1WFOI-Y","name":"GIMILU","address":"Avenida San Martín 1359, Cruz Alta","source":"GooglePlaces","type":"shopping_mall"}},{"type":"Feature","geometry":{"type":"Point","coordinates":[-60.6690017,-32.9274658]},"properties":{"id":"gpoi_ChIJXx2rw6tUtpURpsWyfekM-QI","name":"Alto Rosario Shopping","address":"Junín 501, Rosario","source":"GooglePlaces","type":"shopping_mall"}},{"type":"Feature","geometry":{"type":"Point","coordinates":[-60.88407399999999,-32.94242269999999]},"properties":{"id":"gpoi_ChIJkZfEiZ9LtpURFivhvix4EeU","name":"Paseo Kalinka","address":"y, Blvd. Tierra de Sueños & Familia, Boulevard Tierra de Sueños 3177, Roldán","source":"GooglePlaces","type":"shopping_mall"}},{"type":"Feature","geometry":{"type":"Point","coordinates":[-60.91331779999999,-32.9120421]},"properties":{"id":"gpoi_ChIJqV-KSmxRtpURfNYq8D7t4fw","name":"Toys Hobbies Automodelismo","address":"Simón bolívar 506, Roldán","source":"GooglePlaces","type":"shopping_mall"}},{"type":"Feature","geometry":{"type":"Point","coordinates":[-60.9054298,-32.9027913]},"properties":{"id":"gpoi_ChIJhdA5zHhJtpURh8vjKoUj8-s","name":"Paseo Alberdi","address":"Avenida Central Alberdi 258, Roldán","source":"GooglePlaces","type":"shopping_mall"}},{"type":"Feature","geometry":{"type":"Point","coordinates":[-60.8918562,-32.8946897]},"properties":{"id":"gpoi_ChIJ_015iWVJtpUREd4aeNPKA1I","name":"INGRESO A BARRIO LAS ACEQUIAS","address":"Y PUELCHES, Ruta Nacional A012, Roldán","source":"GooglePlaces","type":"shopping_mall"}},{"type":"Feature","geometry":{"type":"Point","coordinates":[-61.16998299999999,-33.046271]},"properties":{"id":"gpoi_ChIJGyZ0GTottpURhhvr0gIYEeU","name":"CENTRO ECONOMICO DEPARTAMENTO CASEROS","address":"BOJ, Buenos Aires 2474, Casilda","source":"GooglePlaces","type":"shopping_mall"}},{"type":"Feature","geometry":{"type":"Point","coordinates":[-60.81699930000001,-32.92066620000001]},"properties":{"id":"gpoi_ChIJJ9ZTC1NMtpURGU55Kq2lkco","name":"PASEO ALBERDI CENTRO COMPRAS","address":"Ruta Nacional 9 2099, Funes","source":"GooglePlaces","type":"shopping_mall"}},{"type":"Feature","geometry":{"type":"Point","coordinates":[-60.8090905,-32.9215485]},"properties":{"id":"gpoi_ChIJmT1y0KtNtpURGomJRIXZeTE","name":"Ferreteria Bellis","address":"Avenida Cordoba 1452, Ruta Nacional 9, Funes","source":"GooglePlaces","type":"shopping_mall"}},{"type":"Feature","geometry":{"type":"Point","coordinates":[-60.8031648,-32.9225943]},"properties":{"id":"gpoi_ChIJ2WsrD6hNtpURLHS2u1VVvMk","name":"Tierra Chica Funes","address":"Cordoba 972, Funes","source":"GooglePlaces","type":"shopping_mall"}},{"type":"Feature","geometry":{"type":"Point","coordinates":[-60.7973365,-32.9229475]},"properties":{"id":"gpoi_ChIJzXWiDqhNtpURFUqu3sRwtmg","name":"Red Del Sol,Funes","address":"San Martín 600, Funes","source":"GooglePlaces","type":"shopping_mall"}},{"type":"Feature","geometry":{"type":"Point","coordinates":[-60.7782711,-32.9197039]},"properties":{"id":"gpoi_ChIJXxVPQHhNtpURcZOfbfIjtro","name":"Fisherton Square chic","address":"A. J. Paz 1065 bis, Rosario","source":"GooglePlaces","type":"shopping_mall"}},{"type":"Feature","geometry":{"type":"Point","coordinates":[-60.7605226,-32.9253216]},"properties":{"id":"gpoi_ChIJgdIeoZtStpURegT4-my7160","name":"DISTRIBUIDORA DEL NORDESTE S.C. - MYSTIX","address":"Avenida Eva Perón 9060, Rosario","source":"GooglePlaces","type":"shopping_mall"}},{"type":"Feature","geometry":{"type":"Point","coordinates":[-60.704629,-32.96379799999999]},"properties":{"id":"gpoi_ChIJXWypV-mst5URCbWWDievos0","name":"Automatica Rosario","address":"Amenábar 6080, Rosario","source":"GooglePlaces","type":"shopping_mall"}},{"type":"Feature","geometry":{"type":"Point","coordinates":[-60.7377789,-32.8760991]},"properties":{"id":"gpoi_ChIJTeKstCRStpURooFls3PXI-s","name":"Gráfica a.n.a","address":"Calle 1323 4378, Rosario","source":"GooglePlaces","type":"shopping_mall"}},{"type":"Feature","geometry":{"type":"Point","coordinates":[-60.6999941,-32.9197526]},"properties":{"id":"gpoi_ChIJiUp_oz9TtpUR2jJZdAnxFos","name":"DDM.ACCESORIOS","address":"Juan José Paso 5558, AMW","source":"GooglePlaces","type":"shopping_mall"}},{"type":"Feature","geometry":{"type":"Point","coordinates":[-60.6833111,-32.9577511]},"properties":{"id":"gpoi_ChIJDwKXGpmst5URknRkN1Q0L_M","name":"Latina Accesorios","address":"Avenida Presidente Perón 4077, Rosario","source":"GooglePlaces","type":"shopping_mall"}},{"type":"Feature","geometry":{"type":"Point","coordinates":[-60.6838026,-32.92251949999999]},"properties":{"id":"gpoi_ChIJeatjX1pTtpURyQxu1MpEoBw","name":"Showroom BIANCO","address":"Avenida Carballo 1415, Rosario","source":"GooglePlaces","type":"shopping_mall"}},{"type":"Feature","geometry":{"type":"Point","coordinates":[-60.667447,-33.0000757]},"properties":{"id":"gpoi_ChIJp0Ic5vCrt5URm2C-ibDRrDA","name":"Monojuegos","address":"Patria 2373, AQO","source":"GooglePlaces","type":"shopping_mall"}},{"type":"Feature","geometry":{"type":"Point","coordinates":[-60.66142259999999,-32.9974853]},"properties":{"id":"gpoi_ChIJcSyXTu6rt5UReCMiiqTu1cc","name":"Lamadrid Mall","address":"Lamadrid 1946, Rosario","source":"GooglePlaces","type":"shopping_mall"}},{"type":"Feature","geometry":{"type":"Point","coordinates":[-61.3251643,-33.1027075]},"properties":{"id":"gpoi_ChIJqSchpFDVt5URXFG9fhce3ko","name":"Coop Ltda Los Molinos","address":"Unnamed Road, Los Molinos","source":"GooglePlaces","type":"shopping_mall"}},{"type":"Feature","geometry":{"type":"Point","coordinates":[-60.33823739999999,-33.2445672]},"properties":{"id":"gpoi_ChIJh87eqzpst5URWSLud9F5X1U","name":"CIRIBE Centro de Compras","address":"San Luis 2151, Villa Constitución","source":"GooglePlaces","type":"shopping_mall"}},{"type":"Feature","geometry":{"type":"Point","coordinates":[-60.22321520000001,-33.3290632]},"properties":{"id":"gpoi_ChIJ4yALmZJnt5URhwM3sy7mO1A","name":"MZ Ediciones","address":"9 de Julio 196, San Nicolás de Los Arroyos","source":"GooglePlaces","type":"shopping_mall"}},{"type":"Feature","geometry":{"type":"Point","coordinates":[-60.21974600000001,-33.3332909]},"properties":{"id":"gpoi_ChIJtUjx9Y5nt5UR4QSEwWAYLzI","name":"Galeria Luchessi","address":"De la Nación 305, San Nicolás de Los Arroyos","source":"GooglePlaces","type":"shopping_mall"}},{"type":"Feature","geometry":{"type":"Point","coordinates":[-59.7928491,-32.8431106]},"properties":{"id":"gpoi_ChIJZZYGBIPTsJURxsVhktXWtHc","name":"CAMPO MARIA LOLA","address":"Gualeguay","source":"GooglePlaces","type":"shopping_mall"}},{"type":"Feature","geometry":{"type":"Point","coordinates":[-60.32447289999999,-33.2256749]},"properties":{"id":"gpoi_ChIJJ4J3QABtt5URdeq3ti8kR1Q","name":"Pescado de Rio","address":"Ministro J. F. Seguí, Villa Constitución","source":"GooglePlaces","type":"shopping_mall"}},{"type":"Feature","geometry":{"type":"Point","coordinates":[-60.3239096,-33.2333606]},"properties":{"id":"gpoi_ChIJE_3ANUNtt5URwmDKN2KxWPw","name":"Oficina de empleo","address":"Avenida San Martín 2009, Villa Constitución","source":"GooglePlaces","type":"shopping_mall"}},{"type":"Feature","geometry":{"type":"Point","coordinates":[-60.33736589999999,-33.2195701]},"properties":{"id":"gpoi_ChIJQ6fsr5Vtt5URYcoJNL2ayHc","name":"Kiosco El Barquito","address":"Barrio lujan, Villa Constitución","source":"GooglePlaces","type":"shopping_mall"}},{"type":"Feature","geometry":{"type":"Point","coordinates":[-60.32960899999999,-33.2279051]},"properties":{"id":"gpoi_ChIJ-Q2knUFst5URMmH5NzSQe0Y","name":"Galería AGÜI","address":"Gral. San Martín & Irigoyen, 14 de Febrero 769, Villa Constitución","source":"GooglePlaces","type":"shopping_mall"}},{"type":"Feature","geometry":{"type":"Point","coordinates":[-60.33184809999999,-33.2262344]},"properties":{"id":"gpoi_ChIJBcWEkENst5URfayyKJKIns4","name":"GALLERY SAN MARTIN","address":"Avenida San Martín 944, Villa Constitución","source":"GooglePlaces","type":"shopping_mall"}},{"type":"Feature","geometry":{"type":"Point","coordinates":[-60.3325149,-33.226422]},"properties":{"id":"gpoi_ChIJU2VahkNst5URLLv95QXwr98","name":"GALERÍA SAN MARTÍN","address":"Salta 461, Villa Constitución","source":"GooglePlaces","type":"shopping_mall"}},{"type":"Feature","geometry":{"type":"Point","coordinates":[-60.328748,-33.230486]},"properties":{"id":"gpoi_ChIJ8wPtRPRtt5URTHP3dzg0Aws","name":"Doon Armando","address":"Acevedo 502, Villa Constitución","source":"GooglePlaces","type":"shopping_mall"}},{"type":"Feature","geometry":{"type":"Point","coordinates":[-60.3373361,-33.2223735]},"properties":{"id":"gpoi_ChIJxfVcCABtt5URrWi3ZIvG7MY","name":"Kiosco celeste","address":"Calle 4, Villa Constitución","source":"GooglePlaces","type":"shopping_mall"}},{"type":"Feature","geometry":{"type":"Point","coordinates":[-60.31733289999999,-33.2446703]},"properties":{"id":"gpoi_ChIJubKDnRxst5URt609ikyntPk","name":"Pañalera peque","address":"Mosconi 798, Villa Constitución","source":"GooglePlaces","type":"shopping_mall"}},{"type":"Feature","geometry":{"type":"Point","coordinates":[-60.32821130000001,-33.2363951]},"properties":{"id":"gpoi_ChIJs2ODFD5st5URd0B4KqbHTWA","name":"Plantium","address":"Bolívar 1900-2010, Villa Constitución","source":"GooglePlaces","type":"shopping_mall"}},{"type":"Feature","geometry":{"type":"Point","coordinates":[-60.3383273,-33.2278916]},"properties":{"id":"gpoi_ChIJ32gHm2xtt5URbpvtitb-yTM","name":"Meraki Pañalera","address":"14 de Febrero 990, Villa Constitución","source":"GooglePlaces","type":"shopping_mall"}},{"type":"Feature","geometry":{"type":"Point","coordinates":[-60.3274169,-33.2425922]},"properties":{"id":"gpoi_ChIJjS2KyQFtt5URTCAHzEaFu1I","name":"Mil colores libreria y manualidades","address":"12 de Octubre 2425, Villa Constitución","source":"GooglePlaces","type":"shopping_mall"}},{"type":"Feature","geometry":{"type":"Point","coordinates":[-60.3416924,-33.2293202]},"properties":{"id":"gpoi_ChIJnQwtewBtt5URmRsRrYMixvA","name":"Doña pepa drugstore","address":"12 de Octubre 620, Villa Constitución","source":"GooglePlaces","type":"shopping_mall"}},{"type":"Feature","geometry":{"type":"Point","coordinates":[-60.34099209999999,-33.2325485]},"properties":{"id":"gpoi_ChIJWSpPU3Ztt5URsEddORtqH0Y","name":"Cleta","address":"Venecia 917, Villa Constitución","source":"GooglePlaces","type":"shopping_mall"}},{"type":"Feature","geometry":{"type":"Point","coordinates":[-60.33440049999999,-33.2421542]},"properties":{"id":"gpoi_ChIJIRdIZzltt5URwtxMFW9AZuw","name":"Forrajes Risso","address":"Pueblos Originarios 1775, Villa Constitución","source":"GooglePlaces","type":"shopping_mall"}},{"type":"Feature","geometry":{"type":"Point","coordinates":[-60.22880059999999,-33.3210471]},"properties":{"id":"gpoi_ChIJ5fHP1IVnt5URcA5f_hLPcxA","name":"Carrousel de los Sueños","address":"Plaza 14 de abril, San Nicolás de Los Arroyos","source":"GooglePlaces","type":"shopping_mall"}},{"type":"Feature","geometry":{"type":"Point","coordinates":[-59.31166379999999,-33.150459]},"properties":{"id":"gpoi_ChIJH4ikspicsJURxKNJzYaEm64","name":"Altos del Gualeguay","address":"Gualeguay","source":"GooglePlaces","type":"shopping_mall"}},{"type":"Feature","geometry":{"type":"Point","coordinates":[-58.52313090000001,-33.01031009999999]},"properties":{"id":"gpoi_ChIJJ-swmieoupUREf_X3SkZZks","name":"Maxcell Comunicaciones","address":"Aguado 97 E2820, Gualeguaychú","source":"GooglePlaces","type":"shopping_mall"}},{"type":"Feature","geometry":{"type":"Point","coordinates":[-58.5208156,-33.0127553]},"properties":{"id":"gpoi_ChIJz9bkGiaoupURYm_x_pv272g","name":"Taller de Artesanias Madecuer","address":"Gervasio Mendez 1119, Gualeguaychú","source":"GooglePlaces","type":"shopping_mall"}},{"type":"Feature","geometry":{"type":"Point","coordinates":[-58.471995,-33.0080338]},"properties":{"id":"gpoi_ChIJg0s3pvGpupURDbZJE0nNb7s","name":"Fábrica de Hielo Cristal De Agua","address":"Calle San Antonio 536, Pueblo General Belgrano","source":"GooglePlaces","type":"shopping_mall"}},{"type":"Feature","geometry":{"type":"Point","coordinates":[-59.0182592,-33.02934639999999]},"properties":{"id":"gpoi_ChIJ-8lQAHx8sJURnW4VYqYHDJ4","name":"Transnet Internet","address":"Gualeguaychú","source":"GooglePlaces","type":"shopping_mall"}},{"type":"Feature","geometry":{"type":"Point","coordinates":[-59.0007315,-33.03454809999999]},"properties":{"id":"gpoi_ChIJvbB4_pF7sJURwDtO1yeOBiY","name":"Libreria Y Jugueteria Arco Iris","address":"O. V. Andrade, Villa Larroque","source":"GooglePlaces","type":"shopping_mall"}},{"type":"Feature","geometry":{"type":"Point","coordinates":[-58.99640489999999,-33.0344965]},"properties":{"id":"gpoi_ChIJVQib45x7sJURidd3PDqGWP4","name":"Cable Visión Larroque","address":"Larroque","source":"GooglePlaces","type":"shopping_mall"}},{"type":"Feature","geometry":{"type":"Point","coordinates":[-58.9982671,-33.0354803]},"properties":{"id":"gpoi_ChIJuYdswN17sJUR-nWM38A51cA","name":"MALIBU CELL STORE","address":"General San Martín 60, Villa Larroque","source":"GooglePlaces","type":"shopping_mall"}},{"type":"Feature","geometry":{"type":"Point","coordinates":[-58.99747989999999,-33.03767990000001]},"properties":{"id":"gpoi_ChIJOxdgGJN7sJURUNBXiAzrJOQ","name":"Punto Tecno","address":"Hipólito Irigoyen 26, Villa Larroque","source":"GooglePlaces","type":"shopping_mall"}},{"type":"Feature","geometry":{"type":"Point","coordinates":[-59.00609050000001,-33.0385365]},"properties":{"id":"gpoi_ChIJ2xZcvyl7sJURVdBkLebpIa0","name":"La Paloma Regaleria Bazar","address":"O. V. Andrade 557, Villa Larroque","source":"GooglePlaces","type":"shopping_mall"}},{"type":"Feature","geometry":{"type":"Point","coordinates":[-58.83524139999999,-33.0770375]},"properties":{"id":"gpoi_ChIJb6EInep3sJURri5eh-QOnQM","name":"El Indio","address":"RP16 45","source":"GooglePlaces","type":"shopping_mall"}},{"type":"Feature","geometry":{"type":"Point","coordinates":[-59.3123478,-33.1183398]},"properties":{"id":"gpoi_ChIJsTW6zuWbsJURV-y9vIo-Xfk","name":"PP comercial srl ( gualeguay )","address":"RN12","source":"GooglePlaces","type":"shopping_mall"}},{"type":"Feature","geometry":{"type":"Point","coordinates":[-59.3063061,-33.1353016]},"properties":{"id":"gpoi_ChIJV0aWSWmbsJURoyK9-ywPdyg","name":"Soychu Gualeguay","address":"Avenida Presidente Peron 1273, Gualeguay","source":"GooglePlaces","type":"shopping_mall"}},{"type":"Feature","geometry":{"type":"Point","coordinates":[-59.3047552,-33.1444193]},"properties":{"id":"gpoi_ChIJueU6kZOdsJURqtxD4qXlC5M","name":"Enzito guay","address":"AV PERON, Antártida Argentina Y, Gualeguay","source":"GooglePlaces","type":"shopping_mall"}},{"type":"Feature","geometry":{"type":"Point","coordinates":[-59.3087078,-33.1414763]},"properties":{"id":"gpoi_ChIJfxwocoibsJURwJjtfBeVgDk","name":"Casa Matar Quinielas","address":"Martín Fierro 308, Gualeguay","source":"GooglePlaces","type":"shopping_mall"}},{"type":"Feature","geometry":{"type":"Point","coordinates":[-59.3157118,-33.1305388]},"properties":{"id":"gpoi_ChIJtXh9_aibsJURTHL5qVBSDo4","name":"Mercado de frutas casualde","address":"Av. Artigas, Gualeguay","source":"GooglePlaces","type":"shopping_mall"}},{"type":"Feature","geometry":{"type":"Point","coordinates":[-59.3171465,-33.1286461]},"properties":{"id":"gpoi_ChIJK3PAJwCbsJURxSn7kkOAT-g","name":"REFEX MAYORISTA LIMPIEZA","address":"Gualeguay","source":"GooglePlaces","type":"shopping_mall"}},{"type":"Feature","geometry":{"type":"Point","coordinates":[-59.3055482,-33.1476866]},"properties":{"id":"gpoi_ChIJE2dnSaGcsJUR8mgLU-_itZQ","name":"Nautica Chacabuco","address":"Primer Entrerriano 416, Gualeguay","source":"GooglePlaces","type":"shopping_mall"}},{"type":"Feature","geometry":{"type":"Point","coordinates":[-59.30524959999999,-33.1484321]},"properties":{"id":"gpoi_ChIJ8-Mzq6acsJURR3p1z-G1PvQ","name":"VM Estetica","address":"Chacabuco 431, Gualeguay","source":"GooglePlaces","type":"shopping_mall"}},{"type":"Feature","geometry":{"type":"Point","coordinates":[-59.31092930000001,-33.1401433]},"properties":{"id":"gpoi_ChIJmZpXQ5mbsJUR0z_kwOW3QBk","name":"Fruteria Y Verduleria Itati","address":"Uruguay 196, Gualeguay","source":"GooglePlaces","type":"shopping_mall"}},{"type":"Feature","geometry":{"type":"Point","coordinates":[-58.0293182,-33.2493867]},"properties":{"id":"gpoi_ChIJy7TMRD8-pZURxUZA4ugN-H4","name":"Rosas Hermanos Mercedes","address":"General Jose G. Artigas 299, Mercedes","source":"GooglePlaces","type":"shopping_mall"}},{"type":"Feature","geometry":{"type":"Point","coordinates":[-58.030708,-33.249643]},"properties":{"id":"gpoi_ChIJkVBJpEA-pZUROihXXJjSiZA","name":"Antel","address":"Tienda, Wilson Ferreira Aldunate 681 y Colón, Mercedes","source":"GooglePlaces","type":"shopping_mall"}},{"type":"Feature","geometry":{"type":"Point","coordinates":[-58.0313506,-33.2506714]},"properties":{"id":"gpoi_ChIJS5akk0A-pZURynhdJ4OocCg","name":"Centro Comercial e Industrial de Soriano","address":"Jose Enrique Rodo 645, Mercedes","source":"GooglePlaces","type":"shopping_mall"}},{"type":"Feature","geometry":{"type":"Point","coordinates":[-58.0128832,-33.2697857]},"properties":{"id":"gpoi_ChIJLwmTCf49pZUR2-Iqhu4_Vgs","name":"AGROCENTRO Mercedes","address":"PXJP+3RQ, Unnamed Road, Mercedes","source":"GooglePlaces","type":"shopping_mall"}},{"type":"Feature","geometry":{"type":"Point","coordinates":[-58.3098443,-33.1182971]},"properties":{"id":"gpoi_ChIJY3UriY5NpZURLDY6iN7TiIk","name":"Asociacion Comercial","address":"18 de Julio 1347, Fray Bentos","source":"GooglePlaces","type":"shopping_mall"}},{"type":"Feature","geometry":{"type":"Point","coordinates":[-58.31258909999999,-33.1148632]},"properties":{"id":"gpoi_ChIJdb_IlpJNpZURQPAwW5gXalY","name":"Antel","address":"Zorrilla de San Martin 1131, Fray Bentos","source":"GooglePlaces","type":"shopping_mall"}},{"type":"Feature","geometry":{"type":"Point","coordinates":[-57.99425729999999,-32.9726188]},"properties":{"id":"gpoi_ChIJPSRiv1NnpZURle0Mhgu0Od4","name":"Almaraz- estancia","address":"22G4+X75, Unnamed Road, Nuevo Berlín","source":"GooglePlaces","type":"shopping_mall"}},{"type":"Feature","geometry":{"type":"Point","coordinates":[-58.056166,-32.9840303]},"properties":{"id":"gpoi_ChIJNV3YFjddpZURhShRbfGdjWQ","name":"VETERINARIA","address":"2W8V+9GP, Nuevo Berlín","source":"GooglePlaces","type":"shopping_mall"}},{"type":"Feature","geometry":{"type":"Point","coordinates":[-58.05531979999999,-32.9810246]},"properties":{"id":"gpoi_ChIJbZLtlF1dpZURP8zg2SeWOJo","name":"Antel","address":"Río Negro UY, 18 de Julio, Nuevo Berlín","source":"GooglePlaces","type":"shopping_mall"}},{"type":"Feature","geometry":{"type":"Point","coordinates":[-58.0571615,-32.9799812]},"properties":{"id":"gpoi_ChIJzXnq1ZBdpZURnFO0wzYWmjU","name":"San Antonio ido","address":"Jose Pedro Varela 12, Nuevo Berlín","source":"GooglePlaces","type":"shopping_mall"}},{"type":"Feature","geometry":{"type":"Point","coordinates":[-58.1908147,-33.117205]},"properties":{"id":"gpoi_ChIJgU9LPYBPpZURhu7Fpd2M2_g","name":"TLM Bopicua","address":"VRM5+4M7, Acceso a Fray Bentos, Fray Bentos","source":"GooglePlaces","type":"shopping_mall"}},{"type":"Feature","geometry":{"type":"Point","coordinates":[-58.2450894,-33.1123121]},"properties":{"id":"gpoi_ChIJE_35ZgBPpZURJhRYfd6IfHI","name":"Duty Free Shop Fray Bentos","address":"VQQ3+3XF, Puente Libertador General San Martín","source":"GooglePlaces","type":"shopping_mall"}},{"type":"Feature","geometry":{"type":"Point","coordinates":[-57.9199101,-32.7715134]},"properties":{"id":"gpoi_ChIJJW_hf22Lr5UR_OFieKInbxg","name":"LDC Uruguay SA","address":"63HJ+92W, Bellaco","source":"GooglePlaces","type":"shopping_mall"}},{"type":"Feature","geometry":{"type":"Point","coordinates":[-58.20223120000001,-33.1698431]},"properties":{"id":"gpoi_ChIJUa4sJa5IpZURzxOIEDlAn00","name":"TL300","address":"km 299.800, Grito de Asencio","source":"GooglePlaces","type":"shopping_mall"}},{"type":"Feature","geometry":{"type":"Point","coordinates":[-58.01432139999999,-33.2439951]},"properties":{"id":"gpoi_ChIJAUk5sbk_pZUR1_SjKGJNr9A","name":"Arenera silva malfatti","address":"QX4P+C73, Mercedes","source":"GooglePlaces","type":"shopping_mall"}},{"type":"Feature","geometry":{"type":"Point","coordinates":[-58.014767,-33.2453232]},"properties":{"id":"gpoi_ChIJF7d0cmo_pZURgzFdiL_O72U","name":"CORPORACION DE MAQUINARIA - MERCEDES","address":"QX3P+V3H, Mercedes","source":"GooglePlaces","type":"shopping_mall"}},{"type":"Feature","geometry":{"type":"Point","coordinates":[-58.0258799,-33.2480155]},"properties":{"id":"gpoi_ChIJxT9vMj8-pZUR0yh7EXodLo8","name":"Soñora Neumaticos y Baterias","address":"Padre Manuel A. de Castro Y Careaga 924, Mercedes","source":"GooglePlaces","type":"shopping_mall"}},{"type":"Feature","geometry":{"type":"Point","coordinates":[-56.91916949999999,-33.0738467]},"properties":{"id":"gpoi_ChIJN_ETbbp5ppURainpBh3bH-g","name":"La Nueva EDL Srl","address":"W3GJ+F88, Pueblo de la Arena","source":"GooglePlaces","type":"shopping_mall"}},{"type":"Feature","geometry":{"type":"Point","coordinates":[-57.1292013,-33.1676466]},"properties":{"id":"gpoi_ChIJbXmKVADPpZURbZYToBUD48Y","name":"Barraca de leña El Trueque","address":"Sepe &, Andresito","source":"GooglePlaces","type":"shopping_mall"}},{"type":"Feature","geometry":{"type":"Point","coordinates":[-56.766076,-32.879026]},"properties":{"id":"gpoi_ChIJ3U9Eh0FyppURVYDMFATeSug","name":"Rincon de Baygorria","address":"46CM+9HM, 4","source":"GooglePlaces","type":"shopping_mall"}},{"type":"Feature","geometry":{"type":"Point","coordinates":[-57.2292695,-32.847083]},"properties":{"id":"gpoi_ChIJRzIyEVHspZUR00k7TUzBa_E","name":"ganadera san joaquin","address":"5Q3C+579, 20","source":"GooglePlaces","type":"shopping_mall"}},{"type":"Feature","geometry":{"type":"Point","coordinates":[-57.4554659,-33.061833]},"properties":{"id":"gpoi_ChIJo96GyC69pZURNrztWVCxIP8","name":"El Pescador D135","address":"WGQV+7R7, Avenida Brasil, Palmar","source":"GooglePlaces","type":"shopping_mall"}},{"type":"Feature","geometry":{"type":"Point","coordinates":[-56.5292958,-32.79731169999999]},"properties":{"id":"gpoi_ChIJR-eIF7JBppURGdgrRfOyjXk","name":"Local Feria Rural De Paso De Los Toros","address":"25 de agosto esquina julio César grauert, 45100, Paso de los Toros","source":"GooglePlaces","type":"shopping_mall"}},{"type":"Feature","geometry":{"type":"Point","coordinates":[-56.5196333,-32.80476369999999]},"properties":{"id":"gpoi_ChIJtQKRmF1BppUR3zUeL7wInk0","name":"Pañalera Elege +1","address":"Angela B. de Lopez 670, Paso de los Toros","source":"GooglePlaces","type":"shopping_mall"}},{"type":"Feature","geometry":{"type":"Point","coordinates":[-56.5134885,-32.8123943]},"properties":{"id":"gpoi_ChIJo2elNnRBppURFt0o_4C01y4","name":"Imprenta Mere","address":"Luis Batlle Berres 768, Paso de los Toros","source":"GooglePlaces","type":"shopping_mall"}},{"type":"Feature","geometry":{"type":"Point","coordinates":[-56.5140389,-32.8112478]},"properties":{"id":"gpoi_ChIJgUL3Y3FBppUR6PKxE0hyRPI","name":"ELDOM URUCENTRO","address":"Wilson Ferreira Aldunate 398, Paso de los Toros","source":"GooglePlaces","type":"shopping_mall"}},{"type":"Feature","geometry":{"type":"Point","coordinates":[-55.8352318,-32.6144841]},"properties":{"id":"gpoi_ChIJp3lGU_uVp5URCh1VelZCAZU","name":"Antel","address":"Doctor Yamandu Gamba 169, San Gregorio de Polanco","source":"GooglePlaces","type":"shopping_mall"}},{"type":"Feature","geometry":{"type":"Point","coordinates":[-56.0120764,-33.2371742]},"properties":{"id":"gpoi_ChIJnZ2XvVk9p5URVoymLW6xZ3I","name":"OMNILIFE .. Lo Tenes Aquí","address":"QX7Q+45M, Andres Faraut, Villa del Carmen","source":"GooglePlaces","type":"shopping_mall"}},{"type":"Feature","geometry":{"type":"Point","coordinates":[-55.6162188,-32.8850238]},"properties":{"id":"gpoi_ChIJt0fV2a57p5URReySF62LChM","name":"Salón Los Picapiedras","address":"497M+XGR, 18 de Julio, Blanquillo","source":"GooglePlaces","type":"shopping_mall"}},{"type":"Feature","geometry":{"type":"Point","coordinates":[-55.8343984,-32.6157526]},"properties":{"id":"gpoi_ChIJR75FouSVp5URLxWHFaek9xI","name":"La Cadena","address":"95M8+M6X, General Jose Gervasio Artigas, San Gregorio de Polanco","source":"GooglePlaces","type":"shopping_mall"}},{"type":"Feature","geometry":{"type":"Point","coordinates":[-55.1315063,-33.10978009999999]},"properties":{"id":"gpoi_ChIJWVMpmzkFdZURkr20zBJXzk0","name":"Antel","address":"Río Branco, Cerro Chato","source":"GooglePlaces","type":"shopping_mall"}},{"type":"Feature","geometry":{"type":"Point","coordinates":[-54.7706549,-32.8348594]},"properties":{"id":"gpoi_ChIJo-W8wJMLCZURvZrbEd6rdoM","name":"TAXI 20-20","address":"Manini Rios 5985, Tupambaé","source":"GooglePlaces","type":"shopping_mall"}},{"type":"Feature","geometry":{"type":"Point","coordinates":[-54.7591875,-32.8344375]},"properties":{"id":"gpoi_ChIJVVT5wMsKCZURpS7jx-C8LK4","name":"Cel-Pc","address":"Tupambaé","source":"GooglePlaces","type":"shopping_mall"}},{"type":"Feature","geometry":{"type":"Point","coordinates":[-55.10543069999999,-33.2583267]},"properties":{"id":"gpoi_ChIJhStZ5weLCZURmRGM_4mU2Yw","name":"Almacén Tres A","address":"15 15, Valentines","source":"GooglePlaces","type":"shopping_mall"}},{"type":"Feature","geometry":{"type":"Point","coordinates":[-54.8206699,-32.6000622]},"properties":{"id":"gpoi_ChIJIXMBMgCrCZURWyUmSIHjpH8","name":"Cerro de las cuentas","address":"95XH+XP, Quebracho","source":"GooglePlaces","type":"shopping_mall"}},{"type":"Feature","geometry":{"type":"Point","coordinates":[-53.9367191,-32.93718429999999]},"properties":{"id":"gpoi_ChIJ-1ABhRYDDJURyzqdES_6aZU","name":"Antel","address":"Jacinto Ruiz y, Vergara","source":"GooglePlaces","type":"shopping_mall"}},{"type":"Feature","geometry":{"type":"Point","coordinates":[-54.3833508,-33.2334982]},"properties":{"id":"gpoi_ChIJr75AbATpC5URNpSYii9xuZ8","name":"Antel","address":"Avelino Miranda 1322 y, Tienda","source":"GooglePlaces","type":"shopping_mall"}},{"type":"Feature","geometry":{"type":"Point","coordinates":[-54.3887314,-33.2283559]},"properties":{"id":"gpoi_ChIJw2Ysx__oC5UREBWWse2faPo","name":"Dondocas Atelier De Uñas","address":"QJC6+MG2, Felipe Carapé, Treinta y Tres","source":"GooglePlaces","type":"shopping_mall"}},{"type":"Feature","geometry":{"type":"Point","coordinates":[-53.8395675,-32.8353309]},"properties":{"id":"gpoi_ChIJlSPvGi-nDpURpQ1LaCz-teQ","name":"Ólpitar Treinta y Tres","address":"5576+V57, Rincon","source":"GooglePlaces","type":"shopping_mall"}},{"type":"Feature","geometry":{"type":"Point","coordinates":[-53.696254,-33.0419936]},"properties":{"id":"gpoi_ChIJq7EC9n4-DJURfSCq7-4kPfg","name":"Cooperativa Comercial de \"Arrozal 33\"","address":"X853+6F5, Arrozal Treinta y Tres","source":"GooglePlaces","type":"shopping_mall"}},{"type":"Feature","geometry":{"type":"Point","coordinates":[-53.81116360000001,-33.2068156]},"properties":{"id":"gpoi_ChIJ5UTwprdrDJURpCg_VxVI9PQ","name":"Taller De Costura","address":"Q5VQ+7GG, General Enrique Martínez","source":"GooglePlaces","type":"shopping_mall"}},{"type":"Feature","geometry":{"type":"Point","coordinates":[-53.8077985,-33.2050474]},"properties":{"id":"gpoi_ChIJjRTWANBrDJURrb7rFiyuFy4","name":"Maximotos","address":"Q5VR+XVP, Baron de Río Branco, General Enrique Martinez","source":"GooglePlaces","type":"shopping_mall"}},{"type":"Feature","geometry":{"type":"Point","coordinates":[-53.8033756,-33.20353]},"properties":{"id":"gpoi_ChIJ2_od1f9rDJURqiHUY6p6xQc","name":"Salón de belleza Belissima","address":"Coronel Leonardo Olivera 5, General Enrique Martinez","source":"GooglePlaces","type":"shopping_mall"}},{"type":"Feature","geometry":{"type":"Point","coordinates":[-53.8056022,-33.2064812]},"properties":{"id":"gpoi_ChIJt-xlkJZrDJURw0M-2PX2uqw","name":"Gas Jose Indio!","address":"Q5VV+CQ2, General Enrique Martínez","source":"GooglePlaces","type":"shopping_mall"}},{"type":"Feature","geometry":{"type":"Point","coordinates":[-54.28219739999999,-33.1930943]},"properties":{"id":"gpoi_ChIJDTgrUQDvC5URcjfu5xTh9f8","name":"Local los membrillos, treinta y tres, treinta y tres","address":"Vecinal 1000, Treinta y Tres","source":"GooglePlaces","type":"shopping_mall"}},{"type":"Feature","geometry":{"type":"Point","coordinates":[-53.7912954,-33.2646458]},"properties":{"id":"gpoi_ChIJBwCQSh1pDJURHM4429_vLXo","name":"Panaderia Magopan","address":"Cebollati","source":"GooglePlaces","type":"shopping_mall"}},{"type":"Feature","geometry":{"type":"Point","coordinates":[-53.7939375,-33.2691875]},"properties":{"id":"gpoi_ChIJYcqh1k9pDJUReUjYECFAWH0","name":"Gomeria Cebollati","address":"P6J4+8CG, Cebollati","source":"GooglePlaces","type":"shopping_mall"}},{"type":"Feature","geometry":{"type":"Point","coordinates":[-54.352583,-33.2133427]},"properties":{"id":"gpoi_ChIJw3xCfW_pC5UR4Jvkk2FVKEw","name":"Almacen \"la ventana\"","address":"Montevideo Martinez 1, Treinta y Tres","source":"GooglePlaces","type":"shopping_mall"}},{"type":"Feature","geometry":{"type":"Point","coordinates":[-54.3603678,-33.2229285]},"properties":{"id":"gpoi_ChIJFUCQwp_pC5URia_u5wedO6c","name":"RACIONES FERNANDEZ","address":"Carmelo Colman &, Ejido de Treinta y Tres","source":"GooglePlaces","type":"shopping_mall"}},{"type":"Feature","geometry":{"type":"Point","coordinates":[-54.36741379999999,-33.2189974]},"properties":{"id":"gpoi_ChIJzbV_kr_pC5URZPa1JGBoTm8","name":"LACOREL S.A","address":"Wilson Ferreira Aldunate, Ejido de Treinta y Tres","source":"GooglePlaces","type":"shopping_mall"}},{"type":"Feature","geometry":{"type":"Point","coordinates":[-54.37688869999999,-33.22828570000001]},"properties":{"id":"gpoi_ChIJT-q0GKHpC5UR0NyHWhoaVF8","name":"Barraca Corrales","address":"Pantaleon Artigas","source":"GooglePlaces","type":"shopping_mall"}},{"type":"Feature","geometry":{"type":"Point","coordinates":[-54.3868173,-33.2168058]},"properties":{"id":"gpoi_ChIJ1WH9JQDpC5URu4wRgp5UM7o","name":"Kiosko Rosalia","address":"Ignacio Nuñez","source":"GooglePlaces","type":"shopping_mall"}},{"type":"Feature","geometry":{"type":"Point","coordinates":[-53.2591437,-32.7456609]},"properties":{"id":"gpoi_ChIJJ4OPN9jQDZURDITPcucWXzE","name":"Shopping Lago Merín","address":"7P3R+P8Q, Calle 1, Lago Merín","source":"GooglePlaces","type":"shopping_mall"}},{"type":"Feature","geometry":{"type":"Point","coordinates":[-53.2657611,-32.7399275]},"properties":{"id":"gpoi_ChIJFUcaHxXRDZURLWuW_lcJ8v4","name":"BARRACA CURBELO","address":"18 4716, 37100, Lago Merín","source":"GooglePlaces","type":"shopping_mall"}},{"type":"Feature","geometry":{"type":"Point","coordinates":[-71.52911689999999,-32.1370112]},"properties":{"id":"gpoi_ChIJu-j85bIViZYRiPruIHjkLGI","name":"Minimarket costanera Pichidangui","address":"Los Vilos","source":"GooglePlaces","type":"shopping_mall"}},{"type":"Feature","geometry":{"type":"Point","coordinates":[-71.51021349999999,-31.91101649999999]},"properties":{"id":"gpoi_ChIJlegrU645iZYR8jflAcpC6O4","name":"Centro comercial los vilos","address":"Rengo 128, Los Vilos","source":"GooglePlaces","type":"shopping_mall"}},{"type":"Feature","geometry":{"type":"Point","coordinates":[-71.50740859999999,-31.911144]},"properties":{"id":"gpoi_ChIJgyO3RAA5iZYRPL6bwse0g5c","name":"Siglo Mall","address":"712, Los Vilos","source":"GooglePlaces","type":"shopping_mall"}},{"type":"Feature","geometry":{"type":"Point","coordinates":[-71.1708925,-31.6331698]},"properties":{"id":"gpoi_ChIJh6Foz78qj5YRglurjS2Hwkg","name":"Automotriz Del Choapa","address":"Uruguay 338, Illapel, Illapel","source":"GooglePlaces","type":"shopping_mall"}},{"type":"Feature","geometry":{"type":"Point","coordinates":[-71.0625665,-32.4269735]},"properties":{"id":"gpoi_ChIJUXQQuzJRiJYRu32bkjBYglc","name":"Brutus21 Equipamiento Automotriz - Car Audio","address":"Juan Figueroa #450, Cabildo, Cabildo","source":"GooglePlaces","type":"shopping_mall"}},{"type":"Feature","geometry":{"type":"Point","coordinates":[-71.0209562,-31.7901232]},"properties":{"id":"gpoi_ChIJLbSPVhjRiJYRcl5amZoQatM","name":"Artesanos Tantakuy SpA.","address":"Mallacún 131-b, El Tambo, Salamanca","source":"GooglePlaces","type":"shopping_mall"}},{"type":"Feature","geometry":{"type":"Point","coordinates":[-70.9639778,-31.7820616]},"properties":{"id":"gpoi_ChIJp6SAjpnPiJYRd2i_4FTMdqo","name":"Rustiko jpl","address":"Manuel Bulnes 441, Salamanca, Salamanca","source":"GooglePlaces","type":"shopping_mall"}},{"type":"Feature","geometry":{"type":"Point","coordinates":[-70.9663557,-31.78069169999999]},"properties":{"id":"gpoi_ChIJb2ie4JnPiJYR62D-Yjdb14c","name":"Global Clean","address":"1,, Manuel Bulnes 60, Salamanca, Salamanca","source":"GooglePlaces","type":"shopping_mall"}},{"type":"Feature","geometry":{"type":"Point","coordinates":[-70.96365449999999,-31.78071809999999]},"properties":{"id":"gpoi_ChIJGzZAKyDPiJYRnWbcdLMH8XI","name":"Local Arañita Tejedora Salamanca","address":"feria Nayara O'higgins 461 local, O'Higgins 19, Salamanca, Salamanca","source":"GooglePlaces","type":"shopping_mall"}},{"type":"Feature","geometry":{"type":"Point","coordinates":[-70.9655265,-31.779789]},"properties":{"id":"gpoi_ChIJHXiYXwDPiJYR7bNSVayBMPU","name":"Bien Raiz Rol 88-25 y 88-26","address":"Matilde Salamanca 13, Salamanca","source":"GooglePlaces","type":"shopping_mall"}},{"type":"Feature","geometry":{"type":"Point","coordinates":[-70.96510640000001,-31.7782399]},"properties":{"id":"gpoi_ChIJoQ-GOJjPiJYREsPYd5DNSsA","name":"Bazar Bruna","address":"Irarrázaval 640, Salamanca, Salamanca","source":"GooglePlaces","type":"shopping_mall"}},{"type":"Feature","geometry":{"type":"Point","coordinates":[-70.9653587,-31.7770011]},"properties":{"id":"gpoi_ChIJKYtuDJjPiJYRpgqt9qhWEPw","name":"Imprenta J. Gutenberg","address":"Ruiz Valledor 111, Salamanca, Salamanca","source":"GooglePlaces","type":"shopping_mall"}},{"type":"Feature","geometry":{"type":"Point","coordinates":[-70.7315254,-31.8811835]},"properties":{"id":"gpoi_ChIJVcKmNZC-iJYRl5KPSRW_IGY","name":"FERROMIIN","address":"Salamanca","source":"GooglePlaces","type":"shopping_mall"}},{"type":"Feature","geometry":{"type":"Point","coordinates":[-70.72499119999999,-31.8855971]},"properties":{"id":"gpoi_ChIJi5nnR4S-iJYRlOq73v7CEFU","name":"Talabarteria Manuel Cuevas","address":"chillepin avda manuel rodriguez #45, Salamanca","source":"GooglePlaces","type":"shopping_mall"}},{"type":"Feature","geometry":{"type":"Point","coordinates":[-70.83858959999999,-32.2226081]},"properties":{"id":"gpoi_ChIJN9wMXgD1iJYRYVoFKf47y-8","name":"Minimarket don rola","address":"E-35 114, Chincolco, Petorca","source":"GooglePlaces","type":"shopping_mall"}},{"type":"Feature","geometry":{"type":"Point","coordinates":[-71.0027015,-32.2757186]},"properties":{"id":"gpoi_ChIJ3SEA5df5iJYRAC8fiQl5Z8Y","name":"Don Dino","address":"Petorca","source":"GooglePlaces","type":"shopping_mall"}},{"type":"Feature","geometry":{"type":"Point","coordinates":[-71.37394739999999,-32.13348079999999]},"properties":{"id":"gpoi_ChIJcX4ZYHsbiZYRtwNvCjJFNX0","name":"Fundo Rey De Cano","address":"D-875, Guanguali, Los Vilos","source":"GooglePlaces","type":"shopping_mall"}},{"type":"Feature","geometry":{"type":"Point","coordinates":[-71.1786522,-31.65477340000001]},"properties":{"id":"gpoi_ChIJ87GMoUErj5YRRFx94esBseo","name":"Man Go Illapel","address":"Malva 38, Illapel","source":"GooglePlaces","type":"shopping_mall"}},{"type":"Feature","geometry":{"type":"Point","coordinates":[-71.1760903,-31.6395664]},"properties":{"id":"gpoi_ChIJLd6nlLsqj5YRF6o8N6ziSho","name":"Plaza de Abastos Illapel","address":"El Mirador 50, local 105, Illapel","source":"GooglePlaces","type":"shopping_mall"}},{"type":"Feature","geometry":{"type":"Point","coordinates":[-71.1752889,-31.6384764]},"properties":{"id":"gpoi_ChIJOw9FELwqj5YR24cPsQtyDW8","name":"Strip Center","address":"Avenida Tarcicio Valderrama 828, Illapel, Illapel","source":"GooglePlaces","type":"shopping_mall"}},{"type":"Feature","geometry":{"type":"Point","coordinates":[-68.66489,-31.953446]},"properties":{"id":"gpoi_ChIJ-bQU02TZgJYRDOvv7x2bboY","name":"Maxi kiosco Virgen del Carmen","address":"28WP+J2, Los Berros","source":"GooglePlaces","type":"shopping_mall"}},{"type":"Feature","geometry":{"type":"Point","coordinates":[-68.6520384,-31.95052769999999]},"properties":{"id":"gpoi_ChIJkwuQivbZgJYRabWY2cCU234","name":"KIOSCO DULCE MIA","address":"28XX+Q5, Los Berros","source":"GooglePlaces","type":"shopping_mall"}},{"type":"Feature","geometry":{"type":"Point","coordinates":[-68.6508847,-31.95039439999999]},"properties":{"id":"gpoi_ChIJRXYoSsrZgJYRt_4kjcmhRHg","name":"LosNonos","address":"Los Berros","source":"GooglePlaces","type":"shopping_mall"}},{"type":"Feature","geometry":{"type":"Point","coordinates":[-67.9820505,-31.7353823]},"properties":{"id":"gpoi_ChIJpUEFqoGtgZYRKn7i48v0B0g","name":"LOCAL 1 ARI-SAN-JO","address":"Ruta Nacional 141, Vallecito","source":"GooglePlaces","type":"shopping_mall"}},{"type":"Feature","geometry":{"type":"Point","coordinates":[-68.327156,-31.8084967]},"properties":{"id":"gpoi_ChIJ5RkRN0YDgZYR4vhmXsjZAFM","name":"Bebitos Pañalera Casuarinas","address":"casa 2, calle sarmiento manzana f1","source":"GooglePlaces","type":"shopping_mall"}},{"type":"Feature","geometry":{"type":"Point","coordinates":[-68.311571,-31.7417269]},"properties":{"id":"gpoi_ChIJwzNysJgFgZYRrOSvjvlE6kE","name":"Miniservis Ezi & Emi","address":"Los Algarrobos, Villa Santa Rosa","source":"GooglePlaces","type":"shopping_mall"}},{"type":"Feature","geometry":{"type":"Point","coordinates":[-68.3131159,-31.7427532]},"properties":{"id":"gpoi_ChIJMXpB37wFgZYRyV5l-7obj2Q","name":"Despensa Sofía Aylen","address":"25 de Mayo, Villa Santa Rosa","source":"GooglePlaces","type":"shopping_mall"}},{"type":"Feature","geometry":{"type":"Point","coordinates":[-68.2742836,-31.6655114]},"properties":{"id":"gpoi_ChIJCxQ1HYkPgZYR0PRBITdJ5Zs","name":"El Arte de Sublimar","address":"Capayán","source":"GooglePlaces","type":"shopping_mall"}},{"type":"Feature","geometry":{"type":"Point","coordinates":[-68.27907739999999,-31.6577532]},"properties":{"id":"gpoi_ChIJG45cndYPgZYRJqIO9oBaxGA","name":"B&V Accesorios Caucete","address":"Avenida M. de los Ríos, Caucete","source":"GooglePlaces","type":"shopping_mall"}},{"type":"Feature","geometry":{"type":"Point","coordinates":[-68.2773818,-31.6567247]},"properties":{"id":"gpoi_ChIJIWde6l0PgZYRluGPJfD8agg","name":"MAXI kiosco oasis y quiniela la jugada","address":"Diagonal Sarmiento 983, Caucete","source":"GooglePlaces","type":"shopping_mall"}},{"type":"Feature","geometry":{"type":"Point","coordinates":[-68.2775454,-31.6556965]},"properties":{"id":"gpoi_ChIJGyXMDpkPgZYRAXHgtdrSYMM","name":"\"ATAHUALPA\" simplemente...cosas lindas.","address":"Salvador María del Carril 426, Caucete","source":"GooglePlaces","type":"shopping_mall"}},{"type":"Feature","geometry":{"type":"Point","coordinates":[-68.2657603,-31.6479564]},"properties":{"id":"gpoi_ChIJY4eDNp4PgZYR_Q1AFkPBpJw","name":"Parador DEL SOL","address":"Paula Albarracín de Sarmiento y, Padre Mariano Ianelli, Caucete","source":"GooglePlaces","type":"shopping_mall"}},{"type":"Feature","geometry":{"type":"Point","coordinates":[-68.28518319999999,-31.65806579999999]},"properties":{"id":"gpoi_ChIJRduUQAAPgZYRTm9zX_ctQls","name":"Mis4Soles DESPENSA","address":"Caucete","source":"GooglePlaces","type":"shopping_mall"}},{"type":"Feature","geometry":{"type":"Point","coordinates":[-68.2800123,-31.65271139999999]},"properties":{"id":"gpoi_ChIJJ_LiNfgOgZYRiTsJ_7cEwBs","name":"RECO","address":"Diagonal Sarmiento 668, Caucete","source":"GooglePlaces","type":"shopping_mall"}},{"type":"Feature","geometry":{"type":"Point","coordinates":[-68.2807646,-31.651714]},"properties":{"id":"gpoi_ChIJUSGo_XgPgZYRsv0u24dg9M4","name":"Dulce Josefina","address":"Villa Colón","source":"GooglePlaces","type":"shopping_mall"}},{"type":"Feature","geometry":{"type":"Point","coordinates":[-65.8262948,-32.0597619]},"properties":{"id":"gpoi_ChIJ_Xmj4vOqLJQRDW2ZCbqEdks","name":"Agencia De Quiniela \"La Fortunata\"","address":"Candelaria","source":"GooglePlaces","type":"shopping_mall"}},{"type":"Feature","geometry":{"type":"Point","coordinates":[-65.8244861,-32.0600675]},"properties":{"id":"gpoi_ChIJrc-Nb_GqLJQR8ZmOsZPNLPA","name":"Ferretería Virgen Del Valle","address":"Candelaria","source":"GooglePlaces","type":"shopping_mall"}},{"type":"Feature","geometry":{"type":"Point","coordinates":[-65.80883419999999,-32.2270258]},"properties":{"id":"gpoi_ChIJYWco0RBX05URiism9H28T9g","name":"distribuidora difunta correa","address":"Ayacucho","source":"GooglePlaces","type":"shopping_mall"}},{"type":"Feature","geometry":{"type":"Point","coordinates":[-65.80904860000001,-32.2286624]},"properties":{"id":"gpoi_ChIJoxQi0alX05URulgThJJ2_Is","name":"Despensa Maby","address":"San Luis","source":"GooglePlaces","type":"shopping_mall"}},{"type":"Feature","geometry":{"type":"Point","coordinates":[-65.8044888,-32.2307815]},"properties":{"id":"gpoi_ChIJ2S0nJwZX05URMl6GcikbiJQ","name":"Exe Juegos Ciber","address":"Avenida San Martín, Quines","source":"GooglePlaces","type":"shopping_mall"}},{"type":"Feature","geometry":{"type":"Point","coordinates":[-65.8021088,-32.23355819999999]},"properties":{"id":"gpoi_ChIJD6zwIVpX05URd3dspWn5vZY","name":"Santeria, Herboristería Difunta Correa QUINES","address":"Sarmiento frente a la policía, Sarmiento, Quines","source":"GooglePlaces","type":"shopping_mall"}},{"type":"Feature","geometry":{"type":"Point","coordinates":[-65.8047941,-32.2367563]},"properties":{"id":"gpoi_ChIJr36fTbdX05URmqyWQ7E5iPk","name":"Maxi Kiosco Homero","address":"Quines","source":"GooglePlaces","type":"shopping_mall"}},{"type":"Feature","geometry":{"type":"Point","coordinates":[-65.80332109999999,-32.2450079]},"properties":{"id":"gpoi_ChIJh6gtS2BX05URpscymYV23k0","name":"Ariel Flomenbaum","address":"Pringles 2044, San Luis","source":"GooglePlaces","type":"shopping_mall"}},{"type":"Feature","geometry":{"type":"Point","coordinates":[-65.7828693,-32.2414505]},"properties":{"id":"gpoi_ChIJGW-AWmVX05URzt92g2TR58g","name":"Centro de Descarga y Transferencia Quines","address":"RN20","source":"GooglePlaces","type":"shopping_mall"}},{"type":"Feature","geometry":{"type":"Point","coordinates":[-65.93497959999999,-32.3651067]},"properties":{"id":"gpoi_ChIJ2R9ulbCm1JUResPWaJJsgEE","name":"Mundo Grafico","address":"Luján","source":"GooglePlaces","type":"shopping_mall"}},{"type":"Feature","geometry":{"type":"Point","coordinates":[-65.187724,-31.9463302]},"properties":{"id":"gpoi_ChIJWVQ1TaDULJQRYXGuyS_Ux-c","name":"Light Studio Deluxe","address":"Felipe Erdman 240, Villa Dolores","source":"GooglePlaces","type":"shopping_mall"}},{"type":"Feature","geometry":{"type":"Point","coordinates":[-65.1903999,-31.947745]},"properties":{"id":"gpoi_ChIJCbg1gaDULJQRL5lIgXFcNV8","name":"Galería del Sol","address":"Sarmiento 260, Villa Dolores","source":"GooglePlaces","type":"shopping_mall"}},{"type":"Feature","geometry":{"type":"Point","coordinates":[-65.1890315,-31.9382744]},"properties":{"id":"gpoi_ChIJbbTRw53ULJQRI3AcKXQl-GY","name":"Mary Kay TRASLASIERRA","address":"Villa Sarmiento","source":"GooglePlaces","type":"shopping_mall"}},{"type":"Feature","geometry":{"type":"Point","coordinates":[-65.0306672,-32.0264789]},"properties":{"id":"gpoi_ChIJP0TJW6DX0pURJpMYf65DG_g","name":"El kiosco de las chicas","address":"Córdova","source":"GooglePlaces","type":"shopping_mall"}},{"type":"Feature","geometry":{"type":"Point","coordinates":[-65.037337,-32.03843]},"properties":{"id":"gpoi_ChIJL7zt3xTX0pURp1yu4_FqTKE","name":"Tienda Barro","address":"Ruta Provincial 14 Km 139.5","source":"GooglePlaces","type":"shopping_mall"}},{"type":"Feature","geometry":{"type":"Point","coordinates":[-65.0524642,-31.9523881]},"properties":{"id":"gpoi_ChIJq68UcLbV0pUR5im3XO-VUG8","name":"Gomería y Lavadero Las Rosas","address":"Avenida Champaquí 208, Villa de Las Rosas","source":"GooglePlaces","type":"shopping_mall"}},{"type":"Feature","geometry":{"type":"Point","coordinates":[-65.0475692,-31.9440984]},"properties":{"id":"gpoi_ChIJ1cPfcxPV0pURHwsI7z3NbLY","name":"Dieguito Motos","address":"Ruta Provincial 14 407-371, Villa de Las Rosas","source":"GooglePlaces","type":"shopping_mall"}},{"type":"Feature","geometry":{"type":"Point","coordinates":[-65.0967048,-31.9606038]},"properties":{"id":"gpoi_ChIJrV7f_s4r05URI5BHHJ4CLKc","name":"Torneria Las Tapias","address":"Ruta Nacional 20, Córdoba","source":"GooglePlaces","type":"shopping_mall"}},{"type":"Feature","geometry":{"type":"Point","coordinates":[-64.9884371,-31.8956531]},"properties":{"id":"gpoi_ChIJ6302hawtLZQRnWO6yIYkSQE","name":"Peluquería Claudia Matos","address":"Ruta Provincial 14, Córdoba","source":"GooglePlaces","type":"shopping_mall"}},{"type":"Feature","geometry":{"type":"Point","coordinates":[-65.15081789999999,-31.9397087]},"properties":{"id":"gpoi_ChIJV78AQwDVLJQRnV3iQK8XNhE","name":"SONROW VG #Indumentaria#Regaleria#Juguetes#Rio inflables#Marroquineria#Perfumes","address":"Luis de Tejeda, Villa Dolores","source":"GooglePlaces","type":"shopping_mall"}},{"type":"Feature","geometry":{"type":"Point","coordinates":[-65.14813149999999,-31.9291496]},"properties":{"id":"gpoi_ChIJ0YC6X7jVLJQRcX7V2KYfzgI","name":"Santa María CERDOS","address":"Doctor Luis Torres Amaral","source":"GooglePlaces","type":"shopping_mall"}},{"type":"Feature","geometry":{"type":"Point","coordinates":[-65.16306279999999,-31.94956909999999]},"properties":{"id":"gpoi_ChIJYRqWE-bVLJQR64RvxMwAXkw","name":"La Casona Villa Dolores","address":"Belgrano 2203, Villa Dolores","source":"GooglePlaces","type":"shopping_mall"}},{"type":"Feature","geometry":{"type":"Point","coordinates":[-65.1598246,-31.94244340000001]},"properties":{"id":"gpoi_ChIJh9OFMADVLJQRdWbVvOQA3fU","name":"Encomienda Alfredo","address":"Santiago del Estero 50, Villa Dolores","source":"GooglePlaces","type":"shopping_mall"}},{"type":"Feature","geometry":{"type":"Point","coordinates":[-65.1654499,-31.9546537]},"properties":{"id":"gpoi_ChIJ8dyhUADVLJQR41rGCK1qKGg","name":"Respuestos leal hnos","address":"Villa Dolores","source":"GooglePlaces","type":"shopping_mall"}},{"type":"Feature","geometry":{"type":"Point","coordinates":[-65.1647186,-31.947135]},"properties":{"id":"gpoi_ChIJmcStbwDVLJQRT_5eLKZwuP0","name":"Embragues Nessland","address":"Joaquín V. González 185, Villa Dolores","source":"GooglePlaces","type":"shopping_mall"}},{"type":"Feature","geometry":{"type":"Point","coordinates":[-65.164477,-31.9423423]},"properties":{"id":"gpoi_ChIJwQgwOFLVLJQR66mvx8qYGpY","name":"TRANSPORTE Y COMISIONES BERGALLA Villa Dolores - Cordoba","address":"Bº Docente, Manzana 78 Casa 2, Villa Dolores","source":"GooglePlaces","type":"shopping_mall"}},{"type":"Feature","geometry":{"type":"Point","coordinates":[-65.17329050000001,-31.9479022]},"properties":{"id":"gpoi_ChIJd-6E4LvULJQR72mCLJVeDOM","name":"Maxikiosco Cubo","address":"Belgrano 1264, Villa Dolores","source":"GooglePlaces","type":"shopping_mall"}},{"type":"Feature","geometry":{"type":"Point","coordinates":[-65.055711,-32.149709]},"properties":{"id":"gpoi_ChIJo_JFFADZ0pURMZVPRA0rZik","name":"Autoservicio Emma","address":"Luyaba","source":"GooglePlaces","type":"shopping_mall"}},{"type":"Feature","geometry":{"type":"Point","coordinates":[-64.1293166,-32.1716627]},"properties":{"id":"gpoi_ChIJA1JrW1RvzZURifrH8hvYR9w","name":"Complejo Espacio","address":"5850, Ángel Vicente Peñaloza 1085, Río Tercero","source":"GooglePlaces","type":"shopping_mall"}},{"type":"Feature","geometry":{"type":"Point","coordinates":[-63.68058569999999,-31.91593910000001]},"properties":{"id":"gpoi_ChIJi_KT0eAjzZURy5hqBeyGaBU","name":"Rainaudo Maderas","address":"San Martín 937, Oncativo","source":"GooglePlaces","type":"shopping_mall"}},{"type":"Feature","geometry":{"type":"Point","coordinates":[-63.5728873,-32.0385792]},"properties":{"id":"gpoi_ChIJw8IwF_nhzJURDDfVevwWBBk","name":"Paseo De La Estacion","address":"395,, Roque Sáenz Peña 301, Oliva","source":"GooglePlaces","type":"shopping_mall"}},{"type":"Feature","geometry":{"type":"Point","coordinates":[-64.45206670000002,-32.1751851]},"properties":{"id":"gpoi_ChIJrTauDcGY0pURLLSsBAJHghs","name":"Todo Bici - Villa Del Dique","address":"Villa del Dique","source":"GooglePlaces","type":"shopping_mall"}},{"type":"Feature","geometry":{"type":"Point","coordinates":[-63.86227280000001,-32.034279]},"properties":{"id":"gpoi_ChIJG0haKNkXzZUR3gpwlBV2ovE","name":"CHUMI’S peluquería y barbería.","address":"Unnamed Road, Colonia Almada","source":"GooglePlaces","type":"shopping_mall"}},{"type":"Feature","geometry":{"type":"Point","coordinates":[-64.1915799,-32.0252721]},"properties":{"id":"gpoi_ChIJT_nDJABdzZUR8dMF5sM2SP8","name":"Cerro Chico srl","address":"Corralito","source":"GooglePlaces","type":"shopping_mall"}},{"type":"Feature","geometry":{"type":"Point","coordinates":[-64.1215196,-32.1527103]},"properties":{"id":"gpoi_ChIJYSe6f8hozZURwwjsXNRcm-g","name":"Mis Tres Pimpollos","address":"B. de O Higgins 1643, Río Tercero","source":"GooglePlaces","type":"shopping_mall"}},{"type":"Feature","geometry":{"type":"Point","coordinates":[-63.8930959,-32.163149]},"properties":{"id":"gpoi_ChIJFRiP90gSzZURbOcf1IgT-rI","name":"All Inclusive Home","address":"Av. Gral Belgrano y Dussan, Doctor Alacevich, Villa Ascasubi","source":"GooglePlaces","type":"shopping_mall"}},{"type":"Feature","geometry":{"type":"Point","coordinates":[-64.11819489999999,-32.1646566]},"properties":{"id":"gpoi_ChIJXah3fTNvzZUR-xX1Mx_bIx0","name":"Cotillon Y Papelera Ambar","address":"Presidente Juan Domingo Perón 53, Río Tercero","source":"GooglePlaces","type":"shopping_mall"}},{"type":"Feature","geometry":{"type":"Point","coordinates":[-64.1206493,-32.1634204]},"properties":{"id":"gpoi_ChIJRy9KRQBvzZURjQWANvkQU5I","name":"FORRAJERIA EL GRANJERITO","address":"José Ingenieros 256, Río Tercero","source":"GooglePlaces","type":"shopping_mall"}},{"type":"Feature","geometry":{"type":"Point","coordinates":[-64.11828609999999,-32.1674183]},"properties":{"id":"gpoi_ChIJOzA_BzRvzZURobJRYt31wAI","name":"Talabarteria Gomez","address":"Esperanza 487, Río Tercero","source":"GooglePlaces","type":"shopping_mall"}},{"type":"Feature","geometry":{"type":"Point","coordinates":[-64.1131245,-32.17197649999999]},"properties":{"id":"gpoi_ChIJ1Qd1h-BvzZURR0esV3mrTjQ","name":"Mundo Mágico Cotillón","address":"Sarmiento 125, Río Tercero","source":"GooglePlaces","type":"shopping_mall"}},{"type":"Feature","geometry":{"type":"Point","coordinates":[-64.11368580000001,-32.172259]},"properties":{"id":"gpoi_ChIJAyl1oTpvzZURx2m-jNFj8eo","name":"Galeria Del Solar","address":"Sarmiento 102-200, Río Tercero","source":"GooglePlaces","type":"shopping_mall"}},{"type":"Feature","geometry":{"type":"Point","coordinates":[-64.10458009999999,-32.1780486]},"properties":{"id":"gpoi_ChIJfx9f3iFvzZURl2UODB8U4hg","name":"Dellacasa Descartables","address":"Independencia 125, Río Tercero","source":"GooglePlaces","type":"shopping_mall"}},{"type":"Feature","geometry":{"type":"Point","coordinates":[-64.1291286,-32.1665635]},"properties":{"id":"gpoi_ChIJaffWYtFvzZURWm_eqnG-V2o","name":"La mopa loca!","address":"Diego de Rojas 1051-1099, Río Tercero","source":"GooglePlaces","type":"shopping_mall"}},{"type":"Feature","geometry":{"type":"Point","coordinates":[-64.1123348,-32.17589309999999]},"properties":{"id":"gpoi_ChIJO3QcJTFvzZURW0x2DZyQMps","name":"Tania polirrubro","address":"Avenida San Martín, Río Tercero","source":"GooglePlaces","type":"shopping_mall"}},{"type":"Feature","geometry":{"type":"Point","coordinates":[-64.1251217,-32.16989589999999]},"properties":{"id":"gpoi_ChIJwSDXw6lvzZURFCRyF77CPDE","name":"Las 4 estaciones","address":"Avenida General Savio 694, Río Tercero","source":"GooglePlaces","type":"shopping_mall"}},{"type":"Feature","geometry":{"type":"Point","coordinates":[-64.1182221,-32.1744864]},"properties":{"id":"gpoi_ChIJuY9_lppvzZUR5gP13ZVYq9U","name":"Pañalera \"En Pañales\"","address":"Bolívar 560, Río Tercero","source":"GooglePlaces","type":"shopping_mall"}},{"type":"Feature","geometry":{"type":"Point","coordinates":[-64.1181891,-32.1747127]},"properties":{"id":"gpoi_ChIJ0X60fjtvzZURYvfSzoJKjyI","name":"ART TECH","address":"Bolivar 580, Bolívar 568, Río Tercero","source":"GooglePlaces","type":"shopping_mall"}},{"type":"Feature","geometry":{"type":"Point","coordinates":[-62.71861699999999,-31.8786318]},"properties":{"id":"gpoi_ChIJq01yERNky5UReaNdFwKT-nU","name":"Lucaal SRL","address":"Malvinas 340, Las Varillas","source":"GooglePlaces","type":"shopping_mall"}},{"type":"Feature","geometry":{"type":"Point","coordinates":[-62.7221912,-31.87167209999999]},"properties":{"id":"gpoi_ChIJjwS-8nJky5URh7rcUk9wF2c","name":"De Diez","address":"Vélez Sarfield 188, Las Varillas","source":"GooglePlaces","type":"shopping_mall"}},{"type":"Feature","geometry":{"type":"Point","coordinates":[-63.2064633,-32.3857493]},"properties":{"id":"gpoi_ChIJucQbfqlCzJURu13ZpTyhUeE","name":"Z","address":"A, Autopista Córdoba - Rosario, Villa María","source":"GooglePlaces","type":"shopping_mall"}},{"type":"Feature","geometry":{"type":"Point","coordinates":[-63.2208044,-32.4008277]},"properties":{"id":"gpoi_ChIJy4TIQeRCzJURvmaUyMz9ZR4","name":"Tarea Fina","address":"Intendente Perazzolo 221, Villa María","source":"GooglePlaces","type":"shopping_mall"}},{"type":"Feature","geometry":{"type":"Point","coordinates":[-63.2334537,-32.40119120000001]},